SALE TYPE,SOLD DATE,PROPERTY TYPE,ADDRESS,CITY,STATE OR PROVINCE,ZIP OR POSTAL CODE,PRICE,BEDS,BATHS,LOCATION,SQUARE FEET,LOT SIZE,YEAR BUILT,DAYS ON MARKET,$/SQUARE FEET,HOA/MONTH,STATUS,NEXT OPEN HOUSE START TIME,NEXT OPEN HOUSE END TIME,URL (SEE http://www.redfin.com/buy-a-home/comparative-market-analysis FOR INFO ON PRICING),SOURCE,MLS#,FAVORITE,INTERESTED,LATITUDE,LONGITUDE
MLS Listing,,Townhouse,2351 Allen St,Dallas,TX,75204,625000,3,2.5,Drexler,2466,2831,2003,2,253,81,Active,,,http://www.redfin.com/TX/Dallas/2351-Allen-St-75204/home/32195007,NTREIS,14661771,N,Y,32.796687,-96.7980649
MLS Listing,,Single Family Residential,6759 E Mockingbird Ln,Dallas,TX,75214,500000,2,2.0,Cartuh Terrace,1545,7841,1956,3,324,,Active,September-12-2021 08:00 AM,September-12-2021 08:00 PM,http://www.redfin.com/TX/Dallas/6759-E-Mockingbird-Ln-75214/home/30822987,NTREIS,14661651,N,Y,32.8407666,-96.7440258
MLS Listing,,Condo/Co-op,18240 Midway Rd #104,Dallas,TX,75287,194900,2,2.5,La Buea Vida,1029,,1982,3,189,316,Active,,,http://www.redfin.com/TX/Dallas/18240-Midway-Rd-75287/unit-104/home/31930208,NTREIS,14665748,N,Y,32.9997065,-96.8425713
MLS Listing,,Single Family Residential,6932 Wake Forrest Dr,Dallas,TX,75214,515000,3,2.0,University Terrace Rev,1476,7492,1956,3,349,,Active,,,http://www.redfin.com/TX/Dallas/6932-Wake-Forrest-Dr-75214/home/30870154,NTREIS,14664294,N,Y,32.8539476,-96.73951
MLS Listing,,Single Family Residential,710 Annarose Dr,Dallas,TX,75232,325000,4,2.0,Beckley Heights,1856,17032,2017,10,175,,Active,,,http://www.redfin.com/TX/Dallas/710-Annarose-Dr-75232/home/30936697,NTREIS,14659181,N,Y,32.6720892,-96.8347021
MLS Listing,,Single Family Residential,7317 La Bolsa Dr,Dallas,TX,75248,590000,4,2.0,Prestonwood,2302,8538,1969,11,256,,Active,September-12-2021 08:00 AM,September-12-2021 08:00 PM,http://www.redfin.com/TX/Dallas/7317-La-Bolsa-Dr-75248/home/31078849,NTREIS,14660260,N,Y,32.9646935,-96.782235
MLS Listing,,Single Family Residential,2332 Materhorn Dr,Dallas,TX,75228,264900,3,1.5,Casa View Oaks 06,1149,7492,1954,12,231,,Active,,,http://www.redfin.com/TX/Dallas/2332-Materhorn-Dr-75228/home/31000233,NTREIS,14658554,N,Y,32.8280157,-96.6774908
MLS Listing,,Condo/Co-op,5335 Bent Tree Forest Dr #209,Dallas,TX,75248,139900,1,1.0,Bent Tree Forest Drive Condos,687,381847,1981,16,204,177,Active,,,http://www.redfin.com/TX/Dallas/5335-Bent-Tree-Forest-Dr-75248/unit-209/home/31131920,NTREIS,14658458,N,Y,32.965961,-96.816565
MLS Listing,,Single Family Residential,1727 Wildwood Ln,Wylie,TX,75098,385000,3,2.0,Bozman Farm Estates Ph 6,1793,6621,2019,18,215,42,Active,,,http://www.redfin.com/TX/Wylie/1727-Wildwood-Ln-75098/home/169613970,NTREIS,14653230,N,Y,32.9932412,-96.5049022
MLS Listing,,Single Family Residential,6428 Beckwith Ct,Dallas,TX,75248,449000,3,2.0,Pepperwood Estates,2188,6490,1978,25,205,,Active,,,http://www.redfin.com/TX/Dallas/6428-Beckwith-Ct-75248/home/31085049,NTREIS,14650961,N,Y,32.9790769,-96.7960226
MLS Listing,,Single Family Residential,6440 Royal Ln,Dallas,TX,75230,899000,4,3.0,Pemberton Add #3,2356,12023,1952,38,382,,Active,,,http://www.redfin.com/TX/Dallas/6440-Royal-Ln-75230/home/30876439,NTREIS,14639753,N,Y,32.8945159,-96.7947848
MLS Listing,,Single Family Residential,6217 Alpha Rd,Dallas,TX,75240,665000,4,3.0,Northwood Terrace,2920,15638,1960,46,228,,Active,September-12-2021 08:00 AM,September-12-2021 08:00 PM,http://www.redfin.com/TX/Dallas/6217-Alpha-Rd-75240/home/31015591,NTREIS,14634738,N,Y,32.9334542,-96.7996217
MLS Listing,,Single Family Residential,5522 Harbor Town Dr,Dallas,TX,75287,1799000,5,6.0,Bent Tree North,7218,20909,1983,51,249,33,Active,,,http://www.redfin.com/TX/Dallas/5522-Harbor-Town-Dr-75287/home/31846610,NTREIS,14629080,N,Y,32.9879173,-96.8186247
MLS Listing,,Single Family Residential,5622 Ledgestone Dr,Dallas,TX,75214,590000,3,2.0,Andover Meadows,1911,9322,1965,52,309,,Active,September-12-2021 08:00 AM,September-12-2021 08:00 PM,http://www.redfin.com/TX/Dallas/5622-Ledgestone-Dr-75214/home/30868617,NTREIS,14630414,N,Y,32.8533522,-96.7546014
MLS Listing,,Single Family Residential,2911 Rambling Dr,Dallas,TX,75228,385000,3,2.0,Central Park East,1894,7492,1983,61,203,,Active,,,http://www.redfin.com/TX/Dallas/2911-Rambling-Dr-75228/home/31149679,NTREIS,14618953,N,Y,32.8100988,-96.6930109
MLS Listing,,Single Family Residential,5203 Cedar Springs Rd,Dallas,TX,75235,699850,3,3.0,Oak Lawn Heights,2690,8930,1926,66,260,,Active,,,http://www.redfin.com/TX/Dallas/5203-Cedar-Springs-Rd-75235/home/30814067,NTREIS,14617972,N,Y,32.8212911,-96.825732
MLS Listing,,Single Family Residential,10405 Somerton Dr,Dallas,TX,75229,2985000,6,6.5,Northway Hills,7460,15812,2015,93,400,,Active,,,http://www.redfin.com/TX/Dallas/10405-Somerton-Dr-75229/home/30910668,NTREIS,14598600,N,Y,32.8879692,-96.8452973
MLS Listing,,Vacant Land,422 Delaware St,Dallas,TX,75208,175000,0,,Homestead Park,,7536,,93,,,Active,,,http://www.redfin.com/TX/Dallas/422-Delaware-St-75208/home/30832022,NTREIS,14594665,N,Y,32.737266,-96.829426
MLS Listing,,Single Family Residential,8860 Liptonshire Dr,Dallas,TX,75238,425000,3,2.0,Lake Highlands Estates 10,1691,8059,1955,93,251,,Active,,,http://www.redfin.com/TX/Dallas/8860-Liptonshire-Dr-75238/home/31005792,NTREIS,14593703,N,Y,32.8694534,-96.703102
MLS Listing,,Condo/Co-op,5200 Keller Springs Rd #736,Dallas,TX,75248,575000,2,2.0,Bonaventure Condo,1685,331012,1981,100,341,909,Active,,,http://www.redfin.com/TX/Dallas/5200-Keller-Springs-Rd-75248/unit-736/home/31128794,NTREIS,14590250,N,Y,32.9677598,-96.8184364
MLS Listing,,Multi-Family (2-4 Unit),4529 Rusk Ave,Dallas,TX,75204,624900,2,2.5,Laclede Add,1956,6490,2021,107,319,,Active,,,http://www.redfin.com/TX/Dallas/4529-Rusk-Ave-75204/home/175186235,NTREIS,14584306,N,Y,32.8081652,-96.7848356
MLS Listing,,Townhouse,4621 Steel St,Dallas,TX,75219,499900,3,3.5,Hawthorne Street Twnhms,2102,2788,2014,117,238,100,Active,,,http://www.redfin.com/TX/Dallas/4621-Steel-St-75219/home/30781297,NTREIS,14569418,N,Y,32.813491,-96.8240311
Redfin Data,,Townhouse,2778 Edmonds Dr,Dallas,TX,75219,625000,3,3.5,Dallas,1922,,2016,2,325,22,Pre On-Market,,,http://www.redfin.com/TX/Dallas/2778-Edmonds-Dr-75219/home/143837918,Coming Soon,76514,N,Y,32.8094344,-96.8154557
Redfin Data,,Single Family Residential,7403 Authon Dr,Dallas,TX,75248,625000,4,3.0,Dallas,2869,8015,1973,2,218,,Pre On-Market,,,http://www.redfin.com/TX/Dallas/7403-Authon-Dr-75248/home/31079975,Coming Soon,76492,N,Y,32.9715525,-96.7801431
MLS Listing,,Condo/Co-op,5136 Amesbury Dr #107,Dallas,TX,75206,225000,2,2.0,Arrangement Condo,1008,159212,1970,1,223,325,Active,,,http://www.redfin.com/TX/Dallas/5136-Amesbury-Dr-75206/unit-107/home/30868263,NTREIS,14666611,N,Y,32.8498022,-96.764193
MLS Listing,,Multi-Family (2-4 Unit),3733 Binkley Ave,University Park,TX,75205,995000,4,2.0,STINSONS REV OF MT VERNON ANNEX,2627,5837,1929,1,379,,Active,,,http://www.redfin.com/TX/Dallas/3733-Binkley-Ave-75205/home/32097085,NTREIS,14668626,N,Y,32.840894,-96.795227
MLS Listing,,Single Family Residential,4438 Twin Post Rd,Dallas,TX,75244,1250000,5,3.0,Schreiber Manor 02 Inst,4161,16640,1966,1,300,,Active,September-12-2021 01:00 PM,September-12-2021 03:00 PM,http://www.redfin.com/TX/Dallas/4438-Twin-Post-Rd-75244/home/31098117,NTREIS,14667068,N,Y,32.9194417,-96.8327969
MLS Listing,,Condo/Co-op,3225 Turtle Creek Blvd #1003,Dallas,TX,75219,374000,2,2.0,Renaissance on Turtle Creek Condo,1120,154028,1998,1,334,672,Active,,,http://www.redfin.com/TX/Dallas/3225-Turtle-Creek-Blvd-75219/unit-1003/home/30731845,NTREIS,14669128,N,Y,32.806751,-96.8047924
MLS Listing,,Single Family Residential,10624 Canoe Dr,Irving,TX,75063,801491,4,4.0,South Haven,3444,6186,2021,1,233,44,Active,,,http://www.redfin.com/TX/Irving/10624-Canoe-DR-75063/home/176360936,NTREIS,14668140,N,Y,32.950192,-96.964977
MLS Listing,,Single Family Residential,4138 Ball St,Dallas,TX,75216,279000,4,2.0,Garoutte H G,1668,6186,2021,1,167,,Active,,,http://www.redfin.com/TX/Dallas/4138-Ball-St-75216/home/30855027,NTREIS,14667687,N,Y,32.700552,-96.791523
MLS Listing,,Condo/Co-op,7640 W Greenway Blvd Unit 3F,Dallas,TX,75209,181500,1,1.5,Inwood Crossroads Condo,816,100406,1982,1,222,442,Active,,,http://www.redfin.com/TX/Dallas/7640-W-Greenway-Blvd-75209/unit-3F/home/31173806,NTREIS,14668547,N,Y,32.8489325,-96.8187294
MLS Listing,,Single Family Residential,6455 Palm Island St,Dallas,TX,75241,179000,4,2.0,Highland Green,1231,7841,1972,1,145,,Active,,,http://www.redfin.com/TX/Dallas/6455-Palm-Island-St-75241/home/30946853,NTREIS,14668235,N,Y,32.6676407,-96.7521384
MLS Listing,,Single Family Residential,756 Deerwood Dr,Dallas,TX,75232,125000,3,1.0,Polk Terrace,916,7275,1956,1,136,,Active,,,http://www.redfin.com/TX/Dallas/756-Deerwood-Dr-75232/home/30937947,NTREIS,14669064,N,Y,32.6597146,-96.8340531
MLS Listing,,Single Family Residential,9302 Chimneywood Dr,Rowlett,TX,75089,375000,3,2.0,Graham Estates-Replat,1870,7971,2021,1,201,,Active,,,http://www.redfin.com/TX/Rowlett/9302-Chimneywood-Dr-75089/home/33931262,NTREIS,14669027,N,Y,32.9217195,-96.5112881
MLS Listing,,Condo/Co-op,9813 Walnut St #208,Dallas,TX,75243,70000,1,1.0,Richland Trace Condos,683,383938,1981,1,102,194,Active,,,http://www.redfin.com/TX/Dallas/9813-Walnut-St-75243/unit-208/home/31182155,NTREIS,14663592,N,Y,32.9222479,-96.7160049
MLS Listing,,Vacant Land,2719 Lawrence St,Dallas,TX,75215,59000,0,,Lomas Park,,7667,,1,,,Active,,,http://www.redfin.com/TX/Dallas/2719-Lawrence-St-75215/home/30816210,NTREIS,14669040,N,Y,32.754868,-96.753411
MLS Listing,,Multi-Family (2-4 Unit),10644 Pagewood Dr,Dallas,TX,75230,579000,5,3.5,Crest Meadow Estates,3010,5489,1972,1,192,,Active,,,http://www.redfin.com/TX/Dallas/10644-Pagewood-Dr-75230/home/30992748,NTREIS,14665847,N,Y,32.8914134,-96.7804231
MLS Listing,,Single Family Residential,17912 Benchmark Dr,Dallas,TX,75252,565000,3,2.5,Villages At Frankford Ph I,2992,7405,1996,1,189,58,Active,,,http://www.redfin.com/TX/Dallas/17912-Benchmark-Dr-75252/home/32211167,NTREIS,14669013,N,Y,32.9960745,-96.7733447
MLS Listing,,Single Family Residential,6811 Hodde St,Dallas,TX,75217,245000,3,2.0,Pleasant Manor,1200,7754,1959,1,204,,Active,,,http://www.redfin.com/TX/Dallas/6811-Hodde-St-75217/home/30918261,NTREIS,14669012,N,Y,32.7225551,-96.7044392
MLS Listing,,Single Family Residential,5162 Yolanda Ln,Dallas,TX,75229,1995000,5,5.0,Lobello Estates,5260,52272,1948,1,379,,Active,,,http://www.redfin.com/TX/Dallas/5162-Yolanda-Ln-75229/home/30878497,NTREIS,14667708,N,Y,32.8878256,-96.818248
MLS Listing,,Condo/Co-op,3329 Prescott Ave,Dallas,TX,75219,369500,2,2.5,Park Place Twnhms,1355,110250,1968,1,273,821,Active,,,http://www.redfin.com/TX/Dallas/3329-Prescott-Ave-75219/home/30810449,NTREIS,14668893,N,Y,32.8178703,-96.8156191
MLS Listing,,Single Family Residential,3217 Galahad Dr,Dallas,TX,75229,575000,4,3.0,Sparkman Club Estates,2312,10149,1960,1,249,50,Active,September-12-2021 01:00 PM,September-12-2021 04:00 PM,http://www.redfin.com/TX/Dallas/3217-Galahad-Dr-75229/home/30930630,NTREIS,14667884,N,Y,32.8906862,-96.8692987
MLS Listing,,Vacant Land,4535 Luzon St,Dallas,TX,75216,55000,0,,Central Ave,,7144,,1,,,Active,,,http://www.redfin.com/TX/Dallas/4535-Luzon-St-75216/home/31041057,NTREIS,14668989,N,Y,32.709998,-96.745546
MLS Listing,,Single Family Residential,2628 Silverthorne Dr,Dallas,TX,75287,285000,3,2.0,Morningside 4 Ph A,1335,4879,1984,1,213,,Active,,,http://www.redfin.com/TX/Dallas/2628-Silverthorne-Dr-75287/home/33077293,NTREIS,14668395,N,Y,32.9960957,-96.8691311
MLS Listing,,Condo/Co-op,6269 Oram St #27,Dallas,TX,75214,524900,2,2.5,Regency Lakewood Condo,2472,66908,2006,1,212,,Active,,,http://www.redfin.com/TX/Dallas/6269-Oram-St-75214/unit-27/home/30789316,NTREIS,14668470,N,Y,32.8139999,-96.7557642
MLS Listing,,Single Family Residential,515 N Oak Cliff Blvd,Dallas,TX,75208,389900,2,1.0,Daniels L O Jr,1436,7057,1941,1,272,,Active,,,http://www.redfin.com/TX/Dallas/515-N-Oak-Cliff-Blvd-75208/home/30847300,NTREIS,14668644,N,Y,32.7491188,-96.8529943
MLS Listing,,Single Family Residential,7232 Long Canyon Trl,Dallas,TX,75249,245000,4,2.0,Woods,1760,6839,1977,1,139,,Active,,,http://www.redfin.com/TX/Dallas/7232-Long-Canyon-Trl-75249/home/31115192,NTREIS,14668068,N,Y,32.6405004,-96.9507524
MLS Listing,,Single Family Residential,9635 Millridge Dr,Dallas,TX,75243,525000,4,2.5,Frst Meadows Sec 02,2447,9017,1970,1,215,,Active,,,http://www.redfin.com/TX/Dallas/9635-Millridge-Dr-75243/home/31070462,NTREIS,14660900,N,Y,32.904453,-96.7293714
MLS Listing,,Single Family Residential,3518 S Versailles Ave,Dallas,TX,75209,435000,2,1.0,Lafoy Place,1111,7231,1946,2,392,,Active,,,http://www.redfin.com/TX/Dallas/3518-S-Versailles-Ave-75209/home/30815747,NTREIS,14666874,N,Y,32.8279842,-96.8228448
MLS Listing,,Single Family Residential,1846 Nomas St,Dallas,TX,75212,849900,5,4.0,Victory Gardens,3194,7841,2020,2,266,,Active,,,http://www.redfin.com/TX/Dallas/1846-Nomas-St-75212/home/30976063,NTREIS,14668872,N,Y,32.780773,-96.850126
MLS Listing,,Single Family Residential,3536 Silverhill Dr,Dallas,TX,75241,195000,4,1.5,Highland Hills 09,1240,7057,1969,2,157,,Active,,,http://www.redfin.com/TX/Dallas/3536-Silverhill-Dr-75241/home/31089946,NTREIS,14667940,N,Y,32.6645983,-96.7621342
MLS Listing,,Single Family Residential,1610 Presidio Ave,Dallas,TX,75216,284900,4,2.0,Liberty Heights,1715,9148,2021,2,166,,Active,,,http://www.redfin.com/TX/Dallas/1610-Presidio-Ave-75216/home/30839650,NTREIS,14668450,N,Y,32.703812,-96.803048
MLS Listing,,Single Family Residential,2422 Moffatt Ave,Dallas,TX,75216,284900,4,2.0,Southern Crest,1715,6970,2021,2,166,,Active,,,http://www.redfin.com/TX/Dallas/2422-Moffatt-Ave-75216/home/30886943,NTREIS,14668461,N,Y,32.7001035,-96.7822754
MLS Listing,,Single Family Residential,2503 Kirkley St,Dallas,TX,75241,284900,4,2.0,Alameda Heights,1715,7405,2021,2,166,,Active,,,http://www.redfin.com/TX/Dallas/2503-Kirkley-St-75241/home/30948838,NTREIS,14668483,N,Y,32.668481,-96.781049
MLS Listing,,Single Family Residential,6112 Oakcrest Rd,Dallas,TX,75248,945000,4,3.0,Prestonwood Creek,3977,16248,1982,2,238,,Active,September-12-2021 01:00 PM,September-12-2021 03:00 PM,http://www.redfin.com/TX/Dallas/6112-Oakcrest-Rd-75248/home/31111325,NTREIS,14663851,N,Y,32.9696358,-96.8008982
MLS Listing,,Vacant Land,4415 Sexton Ln,Dallas,TX,75229,339950,0,,Northcrest,,6621,,2,,,Active,,,http://www.redfin.com/TX/Dallas/4415-Sexton-Ln-75229/home/30878086,NTREIS,14668722,N,Y,32.8870102,-96.8339903
MLS Listing,,Single Family Residential,1 Laureston Pl,Dallas,TX,75225,1375000,4,4.0,Glen Lakes 02 Rev,4087,6186,1983,2,336,595,Active,September-12-2021 03:00 PM,September-12-2021 05:00 PM,http://www.redfin.com/TX/Dallas/1-Laureston-Pl-75225/home/30872639,NTREIS,14668807,N,Y,32.8782815,-96.7753575
MLS Listing,,Vacant Land,4110 Hamilton Ave,Dallas,TX,75210,75000,0,,Camps Alex,,6360,,2,,,Active,,,http://www.redfin.com/TX/Dallas/4110-Hamilton-Ave-75210/home/30804939,NTREIS,14668664,N,Y,32.7748108,-96.7509988
MLS Listing,,Single Family Residential,6615 Rolling Vista Dr,Dallas,TX,75248,630000,4,3.5,Prestonwood,3910,14026,1974,2,161,,Active,,,http://www.redfin.com/TX/Dallas/6615-Rolling-Vista-Dr-75248/home/31077690,NTREIS,14662563,N,Y,32.951756,-96.7962109
MLS Listing,,Single Family Residential,6218 Georgian Ct,Dallas,TX,75254,2995000,6,7.5,Williamsburg At Preston,9041,60984,1986,2,331,16,Active,,,http://www.redfin.com/TX/Dallas/6218-Georgian-Ct-75254/home/31073691,NTREIS,14661758,N,Y,32.9414884,-96.7997263
MLS Listing,,Single Family Residential,1554 Russell Glen Ln,Dallas,TX,75232,395000,4,3.0,Highland Oaks 04 Inst 05,2709,27312,1968,2,146,,Active,,,http://www.redfin.com/TX/Dallas/1554-Russell-Glen-Ln-75232/home/30903368,NTREIS,14660487,N,Y,32.6775774,-96.8480402
MLS Listing,,Condo/Co-op,5550 Spring Valley Rd Unit G14,Dallas,TX,75254,144900,1,1.0,Casa Blanca Condo,680,130680,1983,2,213,195,Active,,,http://www.redfin.com/TX/Dallas/5550-Spring-Valley-Rd-75254/unit-G14/home/31165269,NTREIS,14668476,N,Y,32.9391077,-96.8128688
MLS Listing,,Condo/Co-op,1803 Richardson Ave #102,Dallas,TX,75215,409900,2,2.5,Richardson Square Southside,2098,10716,2020,2,195,350,Active,,,http://www.redfin.com/TX/Dallas/1803-Richardson-Ave-75215/unit-102/home/174294509,NTREIS,14668768,N,Y,32.7689949,-96.783599
MLS Listing,,Condo/Co-op,1803 Richardson Ave #103,Dallas,TX,75215,409900,2,2.5,Richardson Square Southside,2098,10716,2020,2,195,350,Active,,,http://www.redfin.com/TX/Dallas/1803-Richardson-Ave-75215/unit-103/home/174294510,NTREIS,14668784,N,Y,32.7689949,-96.783599
MLS Listing,,Single Family Residential,8720 Laurel Canyon Rd,Irving,TX,75063,515000,4,3.0,Emerald Valley 01,3210,5401,2007,2,160,31,Active,September-12-2021 11:00 AM,September-12-2021 01:00 PM,http://www.redfin.com/TX/Irving/8720-Laurel-Canyon-Rd-75063/home/30768744,NTREIS,14646282,N,Y,32.9239987,-96.9720233
MLS Listing,,Single Family Residential,8750 Charing Cross Ln,Dallas,TX,75238,250000,3,2.0,Barkley Square,1214,7928,1965,2,206,,Active,September-12-2021 02:00 PM,September-12-2021 04:00 PM,http://www.redfin.com/TX/Dallas/8750-Charing-Cross-Ln-75238/home/31044691,NTREIS,14663084,N,Y,32.8675346,-96.6865141
MLS Listing,,Single Family Residential,6312 Malcolm Dr,Dallas,TX,75214,645000,3,3.0,Meadow Dale,1586,8146,1947,2,407,,Active,,,http://www.redfin.com/TX/Dallas/6312-Malcolm-Dr-75214/home/30820816,NTREIS,14668779,N,Y,32.8300004,-96.7553796
MLS Listing,,Single Family Residential,5535 Mesa Cir,Dallas,TX,75235,160000,0,,Arlington Park Estates,,10106,2022,2,,,Active,,,http://www.redfin.com/TX/Dallas/5535-Mesa-Cir-75235/home/31053219,NTREIS,14665042,N,Y,32.8143759,-96.853513
MLS Listing,,Single Family Residential,10005 Huffines Dr,Rowlett,TX,75089,580000,6,4.0,Waterview Ph 09,4265,18949,2006,2,136,,Active,,,http://www.redfin.com/TX/Rowlett/10005-Huffines-Dr-75089/home/30757718,NTREIS,14668796,N,Y,32.9499492,-96.5226006
MLS Listing,,Single Family Residential,2518 Elsie Faye Heggins St,Dallas,TX,75215,229900,4,2.0,Hatcher,1688,6708,1949,2,136,,Active,,,http://www.redfin.com/TX/Dallas/2518-Elsie-Faye-Heggins-St-75215/home/30807901,NTREIS,14668780,N,Y,32.7528191,-96.7565297
MLS Listing,,Single Family Residential,5511 W Amherst Ave,Dallas,TX,75209,990000,3,3.0,Preston Park,2350,8015,1938,2,421,25,Active,September-12-2021 01:00 AM,September-12-2021 03:00 PM,http://www.redfin.com/TX/Dallas/5511-W-Amherst-Ave-75209/home/30854612,NTREIS,14666689,N,Y,32.8525121,-96.8186247
MLS Listing,,Condo/Co-op,,Dallas,TX,75231,110000,3,2.0,Windtree Condos,962,343035,1980,2,114,350,Active,,,http://www.redfin.com/TX/Dallas/Undisclosed-address-75231/home/31064760,NTREIS,14665905,N,Y,32.8897298,-96.7300181
MLS Listing,,Condo/Co-op,4107 Bowser Ave #201,Dallas,TX,75219,349900,2,2.0,Alix Condos,1455,23958,2008,2,240,372,Active,,,http://www.redfin.com/TX/Dallas/4107-Bowser-Ave-75219/unit-201/home/35537924,NTREIS,14668713,N,Y,32.8155793,-96.8085526
MLS Listing,,Condo/Co-op,3105 San Jacinto St #204,Dallas,TX,75204,260000,2,2.0,Bryan Place Condo,1083,87468,1981,2,240,445,Active,,,http://www.redfin.com/TX/Dallas/3105-San-Jacinto-St-75204/unit-204/home/31125319,NTREIS,14668663,N,Y,32.7935503,-96.7896683
MLS Listing,,Vacant Land,1723 Dowdy Ferry Rd,Dallas,TX,75217,110000,0,,Bevill Paul Henry City Bl 7859,,14941,,2,,,Active,,,http://www.redfin.com/TX/Dallas/1723-Dowdy-Ferry-Rd-75217/home/31050446,NTREIS,14668760,N,Y,32.6908559,-96.679003
MLS Listing,,Single Family Residential,226 Mazatlan Ave,Dallas,TX,75253,240000,3,2.0,VILLA DEL MAR ESTATES,1380,5663,2006,2,174,,Active,,,http://www.redfin.com/TX/Dallas/226-Mazatlan-Ave-75232/home/30763215,NTREIS,14659964,N,Y,32.6766666,-96.8256581
MLS Listing,,Single Family Residential,10505 Plumwood Pkwy,Dallas,TX,75238,629000,3,2.5,Villas of Lake Highlands,2580,5227,2017,2,244,121,Active,,,http://www.redfin.com/TX/Dallas/10505-Plumwood-Pkwy-75238/home/110134823,NTREIS,14668432,N,Y,32.866826,-96.7038542
MLS Listing,,Single Family Residential,4012 Rawlins St,Dallas,TX,75219,739000,3,2.5,Rawlins Square,3150,4138,1998,2,235,100,Active,,,http://www.redfin.com/TX/Dallas/4012-Rawlins-St-75219/home/31122737,NTREIS,14668324,N,Y,32.813605,-96.8090388
MLS Listing,,Single Family Residential,8610 Charing Cross Ln,Dallas,TX,75238,366000,4,2.0,Barkley Square,1901,9322,1962,2,193,,Active,,,http://www.redfin.com/TX/Dallas/8610-Charing-Cross-Ln-75238/home/31045461,NTREIS,14668681,N,Y,32.8662931,-96.6892297
MLS Listing,,Single Family Residential,4842 Stony Ford Dr,Dallas,TX,75287,749900,4,4.0,Bent Tree North 4,3752,10454,1989,2,200,,Active,,,http://www.redfin.com/TX/Dallas/4842-Stony-Ford-Dr-75287/home/32062072,NTREIS,14654317,N,Y,32.9974631,-96.8238369
MLS Listing,,Single Family Residential,4308 Grassmere Ln,University Park,TX,75205,2690000,5,7.0,Highland Park High School,5282,7405,2022,2,509,,Active,,,http://www.redfin.com/TX/Dallas/4308-Grassmere-Ln-75205/home/32071633,NTREIS,14668677,N,Y,32.8494613,-96.8090179
MLS Listing,,Single Family Residential,5728 Swiss Ave,Dallas,TX,75214,1125000,3,2.5,Munger Place,2914,16204,1940,2,386,,Active,September-12-2021 03:30 PM,September-12-2021 05:00 PM,http://www.redfin.com/TX/Dallas/5728-Swiss-Ave-75214/home/30805766,NTREIS,14666770,N,Y,32.8092089,-96.7606285
MLS Listing,,Single Family Residential,7 Ascot Dr,Duncanville,TX,75116,495000,4,2.5,Thoroughbred Hills Rep,4046,21954,1989,2,122,38,Active,,,http://www.redfin.com/TX/Duncanville/7-Ascot-Dr-75116/home/31325594,NTREIS,14667967,N,Y,32.6757565,-96.9192573
MLS Listing,,Single Family Residential,6903 Prosper St,Dallas,TX,75209,1195000,4,2.5,Mount Vernon Heights,2688,6795,2017,2,445,,Active,,,http://www.redfin.com/TX/Dallas/6903-Prosper-St-75209/home/30855218,NTREIS,14668417,N,Y,32.8422245,-96.8287564
MLS Listing,,Single Family Residential,4646 Chapel Hill Rd,Dallas,TX,75214,2499000,3,3.5,Cloister Estates,4900,44867,1976,2,510,,Active,,,http://www.redfin.com/TX/Dallas/4646-Chapel-Hill-Rd-75214/home/30845481,NTREIS,14667743,N,Y,32.8469887,-96.729873
MLS Listing,,Condo/Co-op,5016 Matilda St #213,Dallas,TX,75206,219000,2,2.0,Birchbrook 01 Condo,1055,132553,1968,2,208,290,Active,,,http://www.redfin.com/TX/Dallas/5016-Matilda-St-75206/unit-213/home/30868391,NTREIS,14655198,N,Y,32.8477664,-96.7673677
MLS Listing,,Single Family Residential,4106 Mehalia Dr,Dallas,TX,75241,174900,3,2.0,Highland Hills,1170,7362,1962,2,149,,Active,,,http://www.redfin.com/TX/Dallas/4106-Mehalia-Dr-75241/home/30945514,NTREIS,14668131,N,Y,32.6730984,-96.7527657
MLS Listing,,Single Family Residential,454 Parkhurst Dr,Dallas,TX,75218,899000,4,3.5,Lake Highlands Estates,3262,7797,2021,2,276,,Active,,,http://www.redfin.com/TX/Dallas/454-Parkhurst-Dr-75218/home/30908504,NTREIS,14668304,N,Y,32.8533532,-96.7105826
MLS Listing,,Condo/Co-op,4800 W Lovers Ln #307,Dallas,TX,75209,149900,1,1.0,Lovers Lane Condos Ph 01-04,654,110250,1985,2,229,204,Active,,,http://www.redfin.com/TX/Dallas/4800-W-Lovers-Ln-75209/unit-307/home/31176174,NTREIS,14668690,N,Y,32.850713,-96.828014
MLS Listing,,Single Family Residential,1735 Garza Ave,Dallas,TX,75216,312500,4,2.0,Liberty Heights,1787,8756,2021,2,175,,Active,,,http://www.redfin.com/TX/Dallas/1735-Garza-Ave-75216/home/30840128,NTREIS,14668689,N,Y,32.7008543,-96.8001308
MLS Listing,,Single Family Residential,4857 Shands Dr,Mesquite,TX,75150,275000,5,2.0,Shands Estates,2337,7928,1969,2,118,,Active,,,http://www.redfin.com/TX/Mesquite/4857-Shands-Dr-75150/home/31888815,NTREIS,14668615,N,Y,32.8356679,-96.6424956
MLS Listing,,Condo/Co-op,2408 Victory Park Ln #839,Dallas,TX,75219,894900,2,2.5,South Tower Residences,1870,71395,2005,2,479,1057,Active,,,http://www.redfin.com/TX/Dallas/2408-Victory-Park-Ln-75219/unit-839/home/30775378,NTREIS,14665096,N,Y,32.787755,-96.8091541
MLS Listing,,Single Family Residential,16031 Red Cedar Trl,Dallas,TX,75248,745000,4,3.0,Prestonwood 24 Sec 2,3310,9845,1980,2,225,,Active,September-12-2021 02:00 PM,September-12-2021 04:00 PM,http://www.redfin.com/TX/Dallas/16031-Red-Cedar-Trl-75248/home/31111344,NTREIS,14664500,N,Y,32.9666107,-96.8001448
MLS Listing,,Single Family Residential,2001 Skipaway Dr,Rowlett,TX,75088,419000,3,2.5,Winners Circle,2409,12066,1999,2,174,71,Active,September-12-2021 02:00 PM,September-12-2021 04:00 PM,http://www.redfin.com/TX/Rowlett/2001-Skipaway-Dr-75088/home/32032510,NTREIS,14667751,N,Y,32.8812344,-96.5773794
MLS Listing,,Single Family Residential,7127 Fenton Dr,Dallas,TX,75231,575000,4,3.0,University Manor,2119,10367,1957,2,271,,Active,,,http://www.redfin.com/TX/Dallas/7127-Fenton-Dr-75231/home/30871271,NTREIS,14622487,N,Y,32.8559447,-96.7382556
MLS Listing,,Single Family Residential,2937 Victorian Forest Dr,Dallas,TX,75227,285000,3,2.5,Victorian Forest Estates Ph 01,2046,7797,2021,2,139,,Active,,,http://www.redfin.com/TX/Dallas/2937-Victorian-Forest-Dr-75227/home/31139225,NTREIS,14668545,N,Y,32.762245,-96.698596
MLS Listing,,Single Family Residential,1733 Garza Ave,Dallas,TX,75216,315000,4,2.0,Liberty Heights,1728,8668,2021,2,182,,Active,,,http://www.redfin.com/TX/Dallas/1733-Garza-Ave-75216/home/30840127,NTREIS,14668513,N,Y,32.700754,-96.80034
MLS Listing,,Townhouse,4310 Bowser Ave #107,Dallas,TX,75219,375000,2,2.5,Intown Twnhms 01,1350,39988,1974,2,278,261,Active,,,http://www.redfin.com/TX/Dallas/4310-Bowser-Ave-75219/unit-107/home/30799562,NTREIS,14666125,N,Y,32.8181401,-96.8104326
MLS Listing,,Single Family Residential,4030 Valley Ridge Rd,Dallas,TX,75220,529000,3,2.0,Glenridge Estates,1460,7579,1952,2,362,,Active,September-12-2021 02:00 PM,September-12-2021 04:00 PM,http://www.redfin.com/TX/Dallas/4030-Valley-Ridge-Rd-75220/home/30914187,NTREIS,14665743,N,Y,32.8768979,-96.8449619
MLS Listing,,Vacant Land,1526 Life Ave,Dallas,TX,75212,120000,0,,Homestead Gardens,,5009,,2,,,Active,,,http://www.redfin.com/TX/Dallas/1526-Life-Ave-75212/home/30974738,NTREIS,14668602,N,Y,32.786029,-96.845225
MLS Listing,,Single Family Residential,5128 Artemesia Ln,Dallas,TX,75209,599000,3,3.5,Cityville #3,1977,2526,2019,2,303,100,Active,September-12-2021 02:00 PM,September-12-2021 04:00 PM,http://www.redfin.com/TX/Dallas/5128-Artemesia-Ln-75209/home/147237638,NTREIS,14667251,N,Y,32.8263126,-96.8181344
MLS Listing,,Condo/Co-op,3110 Thomas Ave #113,Dallas,TX,75204,510000,2,2.0,588 Condos,1723,51139,1998,2,296,340,Active,,,http://www.redfin.com/TX/Dallas/3110-Thomas-Ave-75204/unit-113/home/30764863,NTREIS,14668591,N,Y,32.7984959,-96.7944461
MLS Listing,,Single Family Residential,7500 Kaywood Dr,Dallas,TX,75209,1374900,5,6.0,University Blvd Terrace,4128,8146,1940,2,333,,Active,September-12-2021 03:00 PM,September-12-2021 05:00 PM,http://www.redfin.com/TX/Dallas/7500-Kaywood-Dr-75209/home/30851486,NTREIS,14668164,N,Y,32.847342,-96.8257886
MLS Listing,,Single Family Residential,6238 Balcony Ln,Dallas,TX,75241,215000,4,2.0,College Terrace Ph 02,1861,5489,2005,2,116,,Active,,,http://www.redfin.com/TX/Dallas/6238-Balcony-Ln-75241/home/30761362,NTREIS,14663575,N,Y,32.6656839,-96.7697053
MLS Listing,,Single Family Residential,2535 Kathleen Ave,Dallas,TX,75216,150000,3,2.0,Fordham Heights,1218,6098,1950,2,123,,Active,,,http://www.redfin.com/TX/Dallas/2535-Kathleen-Ave-75216/home/30887613,NTREIS,14668563,N,Y,32.7076427,-96.7865656
MLS Listing,,Condo/Co-op,1747 Leonard St #303,Dallas,TX,75201,5100000,4,4.5,Hall Arts Residences,4702,,2020,2,1085,4504,Active,,,http://www.redfin.com/TX/Dallas/1747-Leonard-St-75201/unit-303/home/172947194,NTREIS,14668552,N,Y,32.7896757,-96.7968279
MLS Listing,,Single Family Residential,1814 Shaw St,Dallas,TX,75212,165000,2,1.0,Victory Gardens,754,3659,1963,2,219,,Active,,,http://www.redfin.com/TX/Dallas/1814-Shaw-St-75212/home/30974575,NTREIS,14668565,N,Y,32.7852882,-96.848815
MLS Listing,,Single Family Residential,6625 Southpoint Dr,Dallas,TX,75248,565000,4,3.5,Tioga East Ph 01,2703,9322,1973,2,209,,Active,,,http://www.redfin.com/TX/Dallas/6625-Southpoint-Dr-75248/home/31083876,NTREIS,14661093,N,Y,32.9783717,-96.7928841
MLS Listing,,Condo/Co-op,2205 Canton St #111,Dallas,TX,75201,629000,3,3.5,Farmers Market Twnhms Condos,2733,153244,2001,2,230,250,Active,,,http://www.redfin.com/TX/Dallas/2205-Canton-St-75201/unit-111/home/32259875,NTREIS,14668232,N,Y,32.7805602,-96.7897584
MLS Listing,,Single Family Residential,3035 Kinkaid Dr,Dallas,TX,75220,379900,3,2.0,Bradford Estates,1904,7667,1968,2,200,,Active,,,http://www.redfin.com/TX/Dallas/3035-Kinkaid-Dr-75220/home/30932595,NTREIS,14668390,N,Y,32.8775284,-96.8749926
MLS Listing,,Condo/Co-op,7525 Holly Hill Dr #52,Dallas,TX,75231,179900,2,2.0,Holly Glen Condos,1069,118832,1980,2,168,427,Active,September-12-2021 12:00 PM,September-12-2021 04:00 PM,http://www.redfin.com/TX/Dallas/7525-Holly-Hill-Dr-75231/unit-52/home/30859399,NTREIS,14667305,N,Y,32.8798828,-96.7542042
MLS Listing,,Single Family Residential,12767 Royal Oaks Ln,Farmers Branch,TX,75234,644000,3,2.5,Mercer Crossing,2566,5271,2022,2,251,653,Active,,,http://www.redfin.com/TX/Farmers-Branch/12767-Royal-Oaks-Ln-75234/home/169397542,NTREIS,14665842,N,Y,32.914973,-96.931416
MLS Listing,,Single Family Residential,12754 Royal Oaks Ln,Farmers Branch,TX,75234,719000,4,3.5,Mercer Crossing,3840,5227,2022,2,187,653,Active,,,http://www.redfin.com/TX/Farmers-Branch/12754-Royal-Oaks-Ln-75234/home/176356284,NTREIS,14665916,N,Y,32.9152921,-96.9313574
MLS Listing,,Vacant Land,4918 Leland Ave,Dallas,TX,75215,75000,0,,Websters South Dallas,,6926,,2,,,Active,,,http://www.redfin.com/TX/Dallas/4918-Leland-Ave-75215/home/30816975,NTREIS,14668514,N,Y,32.749885,-96.756739
MLS Listing,,Single Family Residential,3412 Evening Petal Ln,Dallas,TX,75229,729442,4,3.0,The Reserve at Northaven,2597,4095,2021,2,281,104,Active,September-12-2021 01:00 PM,September-12-2021 05:00 PM,http://www.redfin.com/TX/Dallas/3412-Evening-Petal-Ln-75229/home/176356081,NTREIS,14668497,N,Y,32.8844282,-96.8650745
MLS Listing,,Single Family Residential,811 Cordova St,Dallas,TX,75223,650000,3,2.5,Hollywood 01 Instl,1956,7318,1946,2,332,,Active,September-12-2021 01:00 PM,September-12-2021 03:00 PM,http://www.redfin.com/TX/Dallas/811-Cordova-St-75223/home/30813004,NTREIS,14667561,N,Y,32.8029211,-96.7429805
MLS Listing,,Single Family Residential,6038 Windbreak Trl,Dallas,TX,75252,425000,3,2.5,Bent Trail Add Ph Three,2187,5663,1986,2,194,31,Active,,,http://www.redfin.com/TX/Dallas/6038-Windbreak-Trl-75252/home/32019838,NTREIS,14667906,N,Y,33.0100789,-96.8024676
MLS Listing,,Single Family Residential,1811 Prairie View Dr,Dallas,TX,75235,145000,2,1.0,Arlington Park Estates,744,6229,1954,2,195,,Active,,,http://www.redfin.com/TX/Dallas/1811-Prairie-View-Dr-75235/home/31053331,NTREIS,14668265,N,Y,32.8159561,-96.8504055
MLS Listing,,Single Family Residential,6708 Mccallum Blvd,Dallas,TX,75252,449900,4,2.5,Preston Green North #4,1970,8712,1978,2,228,,Active,,,http://www.redfin.com/TX/Dallas/6708-McCallum-Blvd-75252/home/32162298,NTREIS,14667283,N,Y,32.9877316,-96.7886786
MLS Listing,,Single Family Residential,11006 Scotsmeadow Dr,Dallas,TX,75218,599000,3,2.5,Lochwood Meadows,1987,8625,1966,2,301,,Active,September-12-2021 01:30 PM,September-12-2021 03:00 PM,http://www.redfin.com/TX/Dallas/11006-Scotsmeadow-Dr-75218/home/31045587,NTREIS,14665111,N,Y,32.8590828,-96.6944942
MLS Listing,,Condo/Co-op,9222 Church Rd #205,Dallas,TX,75231,200000,1,1.5,Treetops Ph 02,1002,156511,1983,2,200,230,Active,,,http://www.redfin.com/TX/Dallas/9222-Church-Rd-75231/unit-205/home/31187238,NTREIS,14668378,N,Y,32.885734,-96.7322351
MLS Listing,,Single Family Residential,6537 Anita St,Dallas,TX,75214,1699000,5,4.5,Anita Heights,4382,6882,2022,2,388,,Active,,,http://www.redfin.com/TX/Dallas/6537-Anita-St-75214/home/30823594,NTREIS,14667671,N,Y,32.8345233,-96.7483747
MLS Listing,,Townhouse,2422 N Carroll Ave #1,Dallas,TX,75204,699000,2,2.5,BELMONT PARK REV,2095,8712,2017,2,334,350,Active,,,http://www.redfin.com/TX/Dallas/2422-N-Carroll-Ave-75204/unit-1/home/167563115,NTREIS,14656491,N,Y,32.8086278,-96.7867787
MLS Listing,,Single Family Residential,3518 Springbrook St,Dallas,TX,75205,1499000,3,3.5,NORTHERN HEIGHTS,3603,8233,1928,2,416,,Active,September-12-2021 02:00 PM,September-12-2021 04:00 PM,http://www.redfin.com/TX/Dallas/3518-Springbrook-St-75205/home/30809243,NTREIS,14666731,N,Y,32.8187575,-96.7957746
MLS Listing,,Single Family Residential,10554 Cox Ln,Dallas,TX,75229,615000,4,3.0,Royal Marsh Estates,3031,12415,1972,2,203,,Active,September-12-2021 02:00 PM,September-12-2021 04:00 PM,http://www.redfin.com/TX/Dallas/10554-Cox-Ln-75229/home/30928718,NTREIS,14668175,N,Y,32.8912645,-96.8539667
MLS Listing,,Single Family Residential,1019 N Edgefield Ave,Dallas,TX,75208,499000,2,1.0,Kessler Square,1580,7754,1924,2,316,,Active,,,http://www.redfin.com/TX/Dallas/1019-N-Edgefield-Ave-75208/home/30835577,NTREIS,14667480,N,Y,32.7560717,-96.8430356
MLS Listing,,Single Family Residential,823 Salmon Dr,Dallas,TX,75208,575000,3,2.0,Kessler Highlands,1783,7492,1930,2,322,,Active,,,http://www.redfin.com/TX/Dallas/823-Salmon-Dr-75208/home/30836888,NTREIS,14668316,N,Y,32.7573047,-96.8365027
MLS Listing,,Single Family Residential,6728 Mossvine Pl,Dallas,TX,75254,525000,4,3.5,Northwood Hills Estates,3355,18034,1972,2,156,29,Active,September-12-2021 02:00 PM,September-12-2021 04:00 PM,http://www.redfin.com/TX/Dallas/6728-Mossvine-Pl-75254/home/31073373,NTREIS,14667674,N,Y,32.949071,-96.7855614
MLS Listing,,Single Family Residential,7031 Lyre Ln,Dallas,TX,75214,839000,3,2.0,Lakewood North Estates,1526,9627,1971,2,550,,Active,,,http://www.redfin.com/TX/Dallas/7031-Lyre-Ln-75214/home/30825378,NTREIS,14667587,N,Y,32.8347849,-96.7386319
MLS Listing,,Townhouse,2304 N Carroll Ave #101,Dallas,TX,75204,450000,2,2.5,Elk Hill,1550,,2018,2,290,175,Active,,,http://www.redfin.com/TX/Dallas/2304-N-Carroll-Ave-75204/unit-101/home/161464170,NTREIS,14656793,N,Y,32.8070949,-96.784882
MLS Listing,,Single Family Residential,138 W Louisiana Ave,Dallas,TX,75224,245000,4,2.5,San Jacinto Lawn Rev,2473,7013,1937,2,99,,Active,,,http://www.redfin.com/TX/Dallas/138-W-Louisiana-Ave-75224/home/30839161,NTREIS,14667889,N,Y,32.723017,-96.8244858
MLS Listing,,Single Family Residential,610 Country View Ln,Garland,TX,75043,279610,3,2.0,Country View Sec 01,1668,8625,1983,2,168,,Active,,,http://www.redfin.com/TX/Garland/610-Country-View-Ln-75043/home/31371156,NTREIS,14662072,N,Y,32.8430465,-96.6149889
MLS Listing,,Single Family Residential,2621 Carolwood Ln,Dallas,TX,75212,562780,3,2.5,SoHo Square,1963,2047,2021,2,287,167,Active,,,http://www.redfin.com/TX/DALLAS/2621-CAROLWOOD-LN-75212/home/169390953,NTREIS,14668172,N,Y,32.775877,-96.843809
MLS Listing,,Single Family Residential,2528 Carolwood Ln,Dallas,TX,75212,584500,3,3.5,SoHo Square,2341,1960,2022,2,250,167,Active,,,http://www.redfin.com/TX/DALLAS/2528-CAROLWOOD-LN-75212/home/169390966,NTREIS,14668159,N,Y,32.77527,-96.843607
MLS Listing,,Condo/Co-op,7019 Helsem Way #193,Dallas,TX,75230,450000,2,2.0,Hillcrest Villa,1748,,1974,2,257,377,Active,,,http://www.redfin.com/TX/Dallas/7019-Helsem-Way-75230/unit-193/home/31020361,NTREIS,14667089,N,Y,32.9201803,-96.7830383
MLS Listing,,Condo/Co-op,12660 Hillcrest Rd #7203,Dallas,TX,75230,225000,2,2.0,Williamsburg Condo Ph 02,1268,429937,1986,2,177,412,Active,,,http://www.redfin.com/TX/Dallas/12660-Hillcrest-Rd-75230/unit-7203/home/30746666,NTREIS,14667220,N,Y,32.920969,-96.7858542
MLS Listing,,Single Family Residential,8611 Banff Dr,Dallas,TX,75243,385000,3,3.0,Northwood Estates,1863,10977,1960,2,207,,Active,,,http://www.redfin.com/TX/Dallas/8611-Banff-Dr-75243/home/31028478,NTREIS,14668239,N,Y,32.9041234,-96.7554005
MLS Listing,,Single Family Residential,7158 Bennington Dr,Dallas,TX,75214,575000,3,2.0,University Terrace,1652,,1956,2,348,,Active,September-12-2021 01:00 PM,September-12-2021 03:00 PM,http://www.redfin.com/TX/Dallas/7158-Bennington-Dr-75214/home/30869926,NTREIS,14666243,N,Y,32.851066,-96.7400103
MLS Listing,,Single Family Residential,5124 Cathy Dr,Forney,TX,75126,389900,4,3.0,Clements Ranch Ph 1,2660,6273,2017,2,147,50,Active,,,http://www.redfin.com/TX/Forney/5124-Cathy-Dr-75126/home/143721294,NTREIS,14662024,N,Y,32.7915839,-96.4906681
MLS Listing,,Single Family Residential,8915 Gunnison Dr,Dallas,TX,75231,735000,4,3.0,Fountainhead,2473,8102,1977,2,297,,Active,,,http://www.redfin.com/TX/Dallas/8915-Gunnison-Dr-75231/home/31068830,NTREIS,14667440,N,Y,32.8832036,-96.7397399
MLS Listing,,Single Family Residential,6251 Kenwood Ave,Dallas,TX,75214,575000,3,2.0,Bel Air,1423,6621,1949,2,404,,Active,September-12-2021 01:00 PM,September-12-2021 03:00 PM,http://www.redfin.com/TX/Dallas/6251-Kenwood-Ave-75214/home/30821008,NTREIS,14665791,N,Y,32.8331348,-96.7562293
MLS Listing,,Vacant Land,912 Edgedale Dr,Dallas,TX,75232,65000,0,,Polk Terrace 11,,8581,,2,,,Active,,,http://www.redfin.com/TX/Dallas/912-Edgedale-Dr-75232/home/31029731,NTREIS,14668226,N,Y,32.649901,-96.836536
MLS Listing,,Single Family Residential,7942 Sarahville Dr,Dallas,TX,75252,849000,4,3.5,University Place Add Ph 4,3665,12371,2019,2,232,63,Active,,,http://www.redfin.com/TX/Dallas/7942-Sarahville-Dr-75252/home/160394917,NTREIS,14668220,N,Y,32.983279,-96.767703
MLS Listing,,Condo/Co-op,4705 Bryan St #304,Dallas,TX,75204,375000,2,2.5,Bryan Heights Condos,1550,7710,2017,2,242,195,Active,,,http://www.redfin.com/TX/Dallas/4705-Bryan-St-75204/unit-304/home/113808884,NTREIS,14668207,N,Y,32.8030376,-96.7750233
MLS Listing,,Single Family Residential,5439 Edgehollow Pl,Dallas,TX,75287,1500000,6,5.5,Oakdale Sec Three Ph A,5396,13939,1992,2,278,233,Active,September-12-2021 02:00 PM,September-12-2021 04:00 PM,http://www.redfin.com/TX/Dallas/5439-Edgehollow-Pl-75287/home/32069902,NTREIS,14666419,N,Y,32.9956382,-96.8139572
MLS Listing,,Single Family Residential,1004 Muncie Ave,Dallas,TX,75212,334999,3,2.0,Z E Coombs West End,1780,3703,1947,2,188,,Active,,,http://www.redfin.com/TX/Dallas/1004-Muncie-Ave-75212/home/30988312,NTREIS,14665697,N,Y,32.7748148,-96.8389332
MLS Listing,,Multi-Family (2-4 Unit),3324 Rosedale,University Park,TX,75205,1149000,4,2.0,1HS205,2667,6752,1928,2,431,,Active,,,http://www.redfin.com/TX/Dallas/3324-Rosedale-Ave-75205/home/32109523,NTREIS,14668208,N,Y,32.8477874,-96.7861471
MLS Listing,,Condo/Co-op,1810 N Garrett Ave #218,Dallas,TX,75206,78900,0,1.0,Braemar North Condo,371,44780,1983,2,213,104,Active,,,http://www.redfin.com/TX/Dallas/1810-N-Garrett-Ave-75206/unit-218/home/31162222,NTREIS,14667500,N,Y,32.8090171,-96.775208
MLS Listing,,Townhouse,15827 Spectrum Dr #180,Addison,TX,75001,450000,3,3.0,Townhomes Of District A Ph 01-11,2173,,2005,2,207,340,Active,,,http://www.redfin.com/TX/Addison/15827-Spectrum-Dr-75001/unit-180/home/30765703,NTREIS,14661527,N,Y,32.9645493,-96.8241172
MLS Listing,,Single Family Residential,4316 Cinnabar Dr,Dallas,TX,75227,350000,3,2.0,Buckner Terrace,1912,4182,1971,2,183,,Active,,,http://www.redfin.com/TX/Dallas/4316-Cinnabar-Dr-75227/home/30906257,NTREIS,14666544,N,Y,32.7894973,-96.6962909
MLS Listing,,Multi-Family (2-4 Unit),2619 Abrams Rd,Dallas,TX,75214,575000,2,2.0,Lakewood Heights,2168,14985,1938,2,265,,Active,,,http://www.redfin.com/TX/Dallas/2619-Abrams-Rd-75214/home/30810089,NTREIS,14668167,N,Y,32.8217464,-96.7531322
MLS Listing,,Single Family Residential,2534 Fenestra Dr,Dallas,TX,75228,315000,3,2.0,Claremont Park 02,1832,10846,1961,2,172,,Active,,,http://www.redfin.com/TX/Dallas/2534-Fenestra-Dr-75228/home/30969192,NTREIS,14666733,N,Y,32.8063222,-96.6975862
MLS Listing,,Single Family Residential,9406 Meadowknoll Dr,Dallas,TX,75243,382000,3,2.5,Forest Mdws Sec 01,2006,8494,1969,2,190,,Active,,,http://www.redfin.com/TX/Dallas/9406-Meadowknoll-Dr-75243/home/31070452,NTREIS,14668010,N,Y,32.9052581,-96.7327368
MLS Listing,,Condo/Co-op,5805 Lindell Ave #101,Dallas,TX,75206,439000,2,2.5,Alta Vista,1463,7187,2018,2,300,150,Active,,,http://www.redfin.com/TX/Dallas/5805-Lindell-Ave-75206/unit-101/home/146259331,NTREIS,14665980,N,Y,32.8091412,-96.7675638
MLS Listing,,Single Family Residential,2005 Highlander Dr,Rowlett,TX,75088,489900,4,3.5,Harbor Pointe Estates,3620,9540,1996,2,135,36,Active,September-12-2021 02:00 PM,September-12-2021 04:00 PM,http://www.redfin.com/TX/Rowlett/2005-Highlander-Dr-75088/home/31997953,NTREIS,14664366,N,Y,32.8918721,-96.5835523
MLS Listing,,Single Family Residential,3551 Flaxley Dr,Dallas,TX,75229,549000,3,2.0,Highland North 02,1745,11805,1956,2,315,,Active,September-12-2021 02:00 PM,September-12-2021 04:00 PM,http://www.redfin.com/TX/Dallas/3551-Flaxley-Dr-75229/home/30929027,NTREIS,14667060,N,Y,32.8869568,-96.860585
MLS Listing,,Condo/Co-op,7151 Gaston Ave #509,Dallas,TX,75214,275000,2,2.5,Oaks Of Lakewood Condo,1062,195497,1984,2,259,306,Active,September-12-2021 02:00 PM,September-12-2021 04:00 PM,http://www.redfin.com/TX/Dallas/7151-Gaston-Ave-75214/unit-509/home/31177249,NTREIS,14662250,N,Y,32.81458,-96.732966
MLS Listing,,Single Family Residential,11041 Shortmeadow Dr,Dallas,TX,75218,530000,4,2.0,Lochwood Meadows,2006,9235,1969,2,264,,Active,,,http://www.redfin.com/TX/Dallas/11041-Shortmeadow-Dr-75218/home/31047277,NTREIS,14650916,N,Y,32.862726,-96.6911516
MLS Listing,,Single Family Residential,1438 Briarcliff Rd,Dallas,TX,75235,375000,3,2.5,Arlington Park Estates,1525,7231,1949,2,246,,Active,,,http://www.redfin.com/TX/Dallas/1438-BriarCliff-Rd-75235/home/31052984,NTREIS,14667964,N,Y,32.8136059,-96.8548463
MLS Listing,,Condo/Co-op,2335 Stutz Dr #49,Dallas,TX,75235,395000,2,2.5,Reserve At Utsw Condo,1861,35109,2011,2,212,200,Active,,,http://www.redfin.com/TX/Dallas/2335-Stutz-Dr-75235/unit-49/home/40149326,NTREIS,14668142,N,Y,32.8221255,-96.8396702
MLS Listing,,Single Family Residential,5511 Mercedes Ave,Dallas,TX,75206,935000,4,3.5,Greenland Hills Sec,3349,7797,1927,2,279,,Active,,,http://www.redfin.com/TX/Dallas/5511-Mercedes-Ave-75206/home/30812633,NTREIS,14666192,N,Y,32.82844,-96.774181
MLS Listing,,Single Family Residential,2203 Ash Grove Way,Dallas,TX,75228,630000,4,2.5,Enclave At Ash Creek,3081,5314,2001,2,204,98,Active,September-12-2021 01:00 PM,September-12-2021 03:00 PM,http://www.redfin.com/TX/Dallas/2203-Ash-Grove-Way-75228/home/32196359,NTREIS,14666957,N,Y,32.8115864,-96.7049825
MLS Listing,,Condo/Co-op,2408 Victory Park Ln #1132,Dallas,TX,75219,485000,1,1.5,South Tower Residences,1066,71395,2005,2,455,1061,Active,,,http://www.redfin.com/TX/Dallas/2408-Victory-Park-Ln-75219/unit-1132/home/30775457,NTREIS,14667261,N,Y,32.787755,-96.8091541
MLS Listing,,Single Family Residential,3633 Hanover St,University Park,TX,75225,3150000,5,7.5,University Heights Sec 02,6733,11195,1936,2,468,,Active,,,http://www.redfin.com/TX/Dallas/3633-Hanover-St-75225/home/32102664,NTREIS,14667333,N,Y,32.8546119,-96.7948716
MLS Listing,,Single Family Residential,10393 Wood Heights Dr,Dallas,TX,75227,215000,4,2.0,Hillside Oaks Ph 01,1519,4269,1985,2,142,,Active,,,http://www.redfin.com/TX/Dallas/10393-Wood-Heights-Dr-75227/home/31144630,NTREIS,14667388,N,Y,32.7577631,-96.6443326
MLS Listing,,Single Family Residential,614 Pine Vly,Richardson,TX,75081,629500,5,3.0,RICHLAND MEADOWS PH 1,3885,8581,1998,2,162,,Active,,,http://www.redfin.com/TX/Richardson/614-Pine-Vly-75081/home/31973332,NTREIS,14668127,N,Y,32.9349115,-96.7171653
MLS Listing,,Townhouse,1602 Tribeca Way,Dallas,TX,75204,420000,3,3.5,San Jacinto Lofts,1798,1350,2007,2,234,99,Active,,,http://www.redfin.com/TX/Dallas/1602-Tribeca-Way-75204/home/30773095,NTREIS,14666562,N,Y,32.7978939,-96.7846887
MLS Listing,,Single Family Residential,1525 Bella Vista Dr,Dallas,TX,75218,589500,3,2.0,Casa Linda Estates,1545,21998,1940,2,382,,Active,,,http://www.redfin.com/TX/Dallas/1525-Bella-Vista-Dr-75218/home/30861128,NTREIS,14665545,N,Y,32.8241138,-96.6987979
MLS Listing,,Single Family Residential,6446 Lange Cir,Dallas,TX,75214,575000,2,2.0,Caruth Terrace 03,2140,9670,1958,2,269,,Active,September-12-2021 02:00 AM,September-12-2021 04:00 PM,http://www.redfin.com/TX/Dallas/6446-Lange-Cir-75214/home/30822913,NTREIS,14658230,N,Y,32.8417104,-96.7509257
MLS Listing,,Single Family Residential,6134 Singing Hills Dr,Dallas,TX,75241,119000,3,1.5,Singing Hills-Symphony,1026,7405,1962,2,116,,Active,,,http://www.redfin.com/TX/Dallas/6134-Singing-Hills-Dr-75241/home/30951287,NTREIS,14668119,N,Y,32.6726752,-96.8045184
MLS Listing,,Multi-Family (2-4 Unit),5812 Lewis St,Dallas,TX,75206,483000,2,2.5,Ross Ave Heights,2111,3006,2002,2,229,,Active,September-12-2021 01:30 PM,September-12-2021 03:00 PM,http://www.redfin.com/TX/Dallas/5812-Lewis-St-75206/home/30798244,NTREIS,14666603,N,Y,32.8119093,-96.7670823
MLS Listing,,Single Family Residential,3731 Peter Pan Dr,Dallas,TX,75229,799000,3,2.5,Royal Oaks Park,2515,13721,1989,2,318,,Active,,,http://www.redfin.com/TX/Dallas/3731-Peter-Pan-Dr-75229/home/30928550,NTREIS,14667741,N,Y,32.8944747,-96.8505741
MLS Listing,,Single Family Residential,3541 Townsend Dr,Dallas,TX,75229,495000,3,2.0,Royal Hills,2048,10062,1959,2,242,,Active,September-12-2021 12:00 PM,September-12-2021 04:00 PM,http://www.redfin.com/TX/Dallas/3541-Townsend-Dr-75229/home/30931047,NTREIS,14665376,N,Y,32.8993812,-96.860208
MLS Listing,,Condo/Co-op,4651 Country Creek Dr #1118,Dallas,TX,75236,159500,3,2.0,Country Condos Creek,1368,,1974,2,117,419,Active,,,http://www.redfin.com/TX/Dallas/4651-Country-Creek-Dr-75236/unit-1118/home/31058390,NTREIS,14667961,N,Y,32.6976645,-96.9002438
MLS Listing,,Single Family Residential,3953 Dalgreen Dr,Dallas,TX,75214,2895000,5,5.0,Maplewood,5822,14680,2015,2,497,,Active,,,http://www.redfin.com/TX/Dallas/3953-Dalgreen-Dr-75214/home/30825520,NTREIS,14667791,N,Y,32.8378764,-96.7346392
MLS Listing,,Single Family Residential,4008 Seabury Dr,Dallas,TX,75287,385000,3,2.0,Regency Park 2,1817,7841,1984,2,212,8,Active,,,http://www.redfin.com/TX/Dallas/4008-Seabury-Dr-75287/home/31923895,NTREIS,14667255,N,Y,33.0011007,-96.8433705
MLS Listing,,Single Family Residential,7906 Roundrock Rd,Dallas,TX,75248,639000,4,3.0,Spring Creek,2780,13416,1965,2,230,,Active,September-12-2021 12:00 PM,September-12-2021 02:00 PM,http://www.redfin.com/TX/Dallas/7906-Roundrock-Rd-75248/home/31074788,NTREIS,14657672,N,Y,32.9558593,-96.772278
MLS Listing,,Single Family Residential,1364 Highland Rd,Dallas,TX,75218,950000,3,3.0,Forest Hills,1904,27878,1951,2,499,,Active,,,http://www.redfin.com/TX/Dallas/1364-Highland-Rd-75218/home/30860278,NTREIS,14661992,N,Y,32.810327,-96.7227455
MLS Listing,,Townhouse,3920 Riesling Rdg,Dallas,TX,75204,470000,2,2.5,CADDO CORNER 2,1537,1002,2020,2,306,250,Active,,,http://www.redfin.com/TX/Dallas/3920-Riesling-Rdg-75204/home/174293767,NTREIS,14668102,N,Y,32.799967,-96.785853
MLS Listing,,Single Family Residential,5224 Jordan Ridge Dr,Dallas,TX,75236,249500,3,2.0,Casas Del Sol,1240,5053,2003,2,201,,Active,,,http://www.redfin.com/TX/Dallas/5224-Jordan-Ridge-Dr-75236/home/30743171,NTREIS,14667019,N,Y,32.6853259,-96.913765
MLS Listing,,Single Family Residential,5124 Tennington Park,Dallas,TX,75287,799900,5,4.5,Oaktree Ph Five,4051,8276,2000,3,197,133,Active,September-12-2021 02:00 PM,September-12-2021 04:00 PM,http://www.redfin.com/TX/Dallas/5124-Tennington-Park-75287/home/32130939,NTREIS,14667833,N,Y,33.002859,-96.8208435
MLS Listing,,Single Family Residential,2438 Harding,Dallas,TX,75215,155000,3,1.0,Ervay Cedars,1410,6273,1925,3,110,,Active,,,http://www.redfin.com/TX/Dallas/2438-Harding-St-75215/home/30816873,NTREIS,14666861,N,Y,32.7505062,-96.7546477
MLS Listing,,Single Family Residential,5806 Mercedes Ave,Dallas,TX,75206,595000,2,1.0,Greenville Crest,1562,7492,1926,3,381,,Active,,,http://www.redfin.com/TX/Dallas/5806-Mercedes-Ave-75206/home/30811611,NTREIS,14632231,N,Y,32.8276948,-96.7676137
MLS Listing,,Single Family Residential,2334 Ray Hubbard Way,Wylie,TX,75098,385000,3,2.5,Grayhawk Park,2517,7797,2019,3,153,40,Active,,,http://www.redfin.com/TX/Wylie/2334-Ray-Hubbard-Way-75098/home/167679484,NTREIS,14664432,N,Y,33.0081397,-96.4975175
MLS Listing,,Single Family Residential,1438 Sleepy Hollow Dr,Dallas,TX,75235,199999,3,2.0,Arlington Park,1052,6752,1951,3,190,,Active,,,http://www.redfin.com/TX/Dallas/1438-Sleepy-Hollow-Dr-75235/home/30880511,NTREIS,14664928,N,Y,32.8146875,-96.8583615
MLS Listing,,Single Family Residential,3543 Creek View Dr,Dallas,TX,75233,196000,3,2.0,Parkway Estates 2,1544,13460,1961,3,127,,Active,,,http://www.redfin.com/TX/Dallas/3543-Creek-View-Dr-75233/home/30961906,NTREIS,14667105,N,Y,32.7096804,-96.8805277
MLS Listing,,Single Family Residential,2119 Healey Dr,Dallas,TX,75228,400000,3,2.0,Ferguson Heights 03 Rev,2223,7710,1959,3,180,,Active,,,http://www.redfin.com/TX/Dallas/2119-Healey-Dr-75228/home/31014672,NTREIS,14667085,N,Y,32.82511,-96.6793288
MLS Listing,,Condo/Co-op,7757 Royal Ln Unit B,Dallas,TX,75230,224000,3,3.0,Royal Knoll Condos,1253,104762,1965,3,179,482,Active,,,http://www.redfin.com/TX/Dallas/7757-Royal-Ln-75230/unit-B/home/30992495,NTREIS,14667981,N,Y,32.8982804,-96.7726133
MLS Listing,,Condo/Co-op,3701 Turtle Creek Blvd Unit 5BF,Dallas,TX,75219,224900,1,1.0,Turtle Creek North Condo,832,58414,1962,3,270,697,Active,,,http://www.redfin.com/TX/Dallas/3701-Turtle-Creek-Blvd-75219/unit-5BF/home/30795183,NTREIS,14667976,N,Y,32.8130094,-96.8018222
MLS Listing,,Single Family Residential,10570 Shiloh Rd,Dallas,TX,75228,249900,4,2.0,Country Club Park 01,1597,12023,1954,3,156,,Active,,,http://www.redfin.com/TX/Dallas/10570-Shiloh-Rd-75228/home/31004344,NTREIS,14667949,N,Y,32.8408569,-96.6657749
MLS Listing,,Single Family Residential,116 Halsey St,Dallas,TX,75224,135000,2,1.0,Wynnewood,1122,7884,1949,3,120,,Active,,,http://www.redfin.com/TX/Dallas/116-Halsey-St-75224/home/30894106,NTREIS,14667957,N,Y,32.7102785,-96.8237741
MLS Listing,,Single Family Residential,1471 Autumn Leaves Trl,Dallas,TX,75241,249900,3,2.0,Singing Hills,1621,11500,1957,3,154,,Active,,,http://www.redfin.com/TX/Dallas/1471-Autumn-Leaves-Trl-75241/home/30897819,NTREIS,14667927,N,Y,32.6803657,-96.7987847
MLS Listing,,Single Family Residential,5346 Vanderbilt Ave,Dallas,TX,75206,650000,2,2.0,Greenland Hills Hill Top Sec,1439,7231,1924,3,452,,Active,,,http://www.redfin.com/TX/Dallas/5346-Vanderbilt-Ave-75206/home/30812530,NTREIS,14667920,N,Y,32.8242846,-96.7779466
MLS Listing,,Condo/Co-op,4484 Chaha Rd #203,Garland,TX,75043,160000,2,2.0,Faulkner Point 01,958,590020,1981,3,167,272,Active,,,http://www.redfin.com/TX/Garland/4484-Chaha-Rd-75043/unit-203/home/31385795,NTREIS,14662168,N,Y,32.8618451,-96.5405055
MLS Listing,,Single Family Residential,8242 Old Moss Rd,Dallas,TX,75231,344000,2,2.0,Foxfire,1158,5924,1983,3,297,,Active,,,http://www.redfin.com/TX/Dallas/8242-Old-Moss-Rd-75231/home/31064368,NTREIS,14667900,N,Y,32.8918015,-96.7332204
MLS Listing,,Single Family Residential,5308 Moneta Ln,Dallas,TX,75236,285000,4,3.5,Kirkwood Estates,1752,21736,1960,3,163,,Active,September-12-2021 03:00 PM,September-12-2021 05:00 PM,http://www.redfin.com/TX/Dallas/5308-Moneta-Ln-75236/home/31058515,NTREIS,14658462,N,Y,32.6814405,-96.9149389
MLS Listing,,Condo/Co-op,5300 Keller Springs Rd #1002,Dallas,TX,75248,199900,2,2.0,Prestonwood Green Condos,1189,374529,1982,3,168,315,Active,,,http://www.redfin.com/TX/Dallas/5300-Keller-Springs-Rd-75248/unit-1002/home/31180642,NTREIS,14665287,N,Y,32.9682863,-96.8156107
MLS Listing,,Single Family Residential,628 Creekway Dr,Irving,TX,75039,875000,3,3.5,Lakes Las Colinas Ph 2a,3359,9975,2015,3,260,236,Active,,,http://www.redfin.com/TX/Irving/628-Creekway-Dr-75039/home/52060521,NTREIS,14667875,N,Y,32.883185,-96.9357169
MLS Listing,,Single Family Residential,5721 Penrose Ave,Dallas,TX,75206,899000,3,3.5,Majors & C Majors Resubd,3008,6752,2021,3,299,,Active,,,http://www.redfin.com/TX/Dallas/5721-Penrose-Ave-75206/home/176346423,NTREIS,14667723,N,Y,32.8324775,-96.7692338
MLS Listing,,Single Family Residential,1880 Stevens Bluff Ln,Dallas,TX,75208,610000,3,3.5,High Grove,2260,2439,2016,3,270,125,Active,September-12-2021 02:00 PM,September-12-2021 04:00 PM,http://www.redfin.com/TX/Dallas/1880-Stevens-Bluff-Ln-75208/home/110008786,NTREIS,14664043,N,Y,32.7513149,-96.8496944
MLS Listing,,Single Family Residential,7235 Wild Valley Dr,Dallas,TX,75231,440000,3,2.0,Merriman Manor,1992,7971,1955,3,221,,Active,September-12-2021 12:00 PM,September-12-2021 03:00 PM,http://www.redfin.com/TX/Dallas/7235-Wild-Valley-Dr-75231/home/30871225,NTREIS,14667627,N,Y,32.857691,-96.7375867
MLS Listing,,Single Family Residential,6715 Lakehurst Ave,Dallas,TX,75230,1495000,4,3.5,Hillcrest Park Add,3566,14985,1946,3,419,,Active,,,http://www.redfin.com/TX/Dallas/6715-Lakehurst-Ave-75230/home/30875652,NTREIS,14667786,N,Y,32.8844847,-96.7894109
MLS Listing,,Single Family Residential,4158 Briargrove Ln,Dallas,TX,75287,650000,5,3.5,Bent Tree West Ph 2,3099,10890,1982,3,210,,Active,September-12-2021 02:00 PM,September-12-2021 04:00 PM,http://www.redfin.com/TX/Dallas/4158-Briargrove-Ln-75287/home/31847760,NTREIS,14653720,N,Y,32.992444,-96.8391409
MLS Listing,,Single Family Residential,1607 Brandon St,Dallas,TX,75208,500000,5,3.0,East Hampton Hills,2115,7536,1948,3,236,,Active,September-12-2021 12:00 PM,September-12-2021 02:00 PM,http://www.redfin.com/TX/Dallas/1607-Brandon-St-75208/home/30842797,NTREIS,14666699,N,Y,32.7317849,-96.8472653
MLS Listing,,Condo/Co-op,5142 Amesbury Dr #215,Dallas,TX,75206,224900,2,2.0,Arrangement Condo,972,159212,1970,3,231,307,Active,,,http://www.redfin.com/TX/Dallas/5142-Amesbury-Dr-75206/unit-215/home/30868247,NTREIS,14667122,N,Y,32.8498731,-96.7634874
MLS Listing,,Single Family Residential,909 Sunpoint Cir,Rockwall,TX,75087,384900,4,3.0,Northshore Ph 4,2415,9017,1991,3,159,,Active,,,http://www.redfin.com/TX/Rockwall/909-Sunpoint-Cir-75087/home/33930485,NTREIS,14667265,N,Y,32.9301257,-96.4705338
MLS Listing,,Single Family Residential,9908 Silvertree Dr,Dallas,TX,75243,500000,3,3.0,Woodbridge 02,2502,9453,1981,3,200,10,Active,September-12-2021 01:00 PM,September-12-2021 03:00 PM,http://www.redfin.com/TX/Dallas/9908-Silvertree-Dr-75243/home/31102101,NTREIS,14660043,N,Y,32.9153858,-96.7151591
MLS Listing,,Single Family Residential,6011 Llano Ave,Dallas,TX,75206,474900,2,2.0,Delmar Heights Add,1724,7100,1942,3,275,,Active,September-14-2021 03:30 PM,September-14-2021 06:00 PM,http://www.redfin.com/TX/Dallas/6011-Llano-Ave-75206/home/30806961,NTREIS,14667783,N,Y,32.8222319,-96.7631799
MLS Listing,,Single Family Residential,10112 Baronne Cir,Dallas,TX,75218,399999,4,2.0,Lake Highland Estates 7,1476,8102,1953,3,271,,Active,,,http://www.redfin.com/TX/Dallas/10112-Baronne-Cir-75218/home/30969769,NTREIS,14663864,N,Y,32.8637517,-96.7080332
MLS Listing,,Single Family Residential,7743 Colebrook Dr,Dallas,TX,75217,225000,3,2.0,Bruton Terrace,1257,7536,1955,3,179,,Active,,,http://www.redfin.com/TX/Dallas/7743-Colebrook-Dr-75217/home/30916000,NTREIS,14665970,N,Y,32.7481932,-96.6888955
MLS Listing,,Vacant Land,1933 Noe Blvd,Heath,TX,75126,225000,0,,Heath Golf & Yacht Club,,20168,,3,,185,Active,,,http://www.redfin.com/TX/Heath/1933-Noe-Blvd-75032/home/109838633,NTREIS,14667501,N,Y,32.813976,-96.489263
MLS Listing,,Single Family Residential,7146 Flameleaf Pl,Dallas,TX,75249,209000,3,2.0,Wood,1365,6534,1978,3,153,,Active,September-12-2021 01:00 AM,September-12-2021 04:00 PM,http://www.redfin.com/TX/Dallas/7146-Flameleaf-Pl-75249/home/31117104,NTREIS,14666685,N,Y,32.6264232,-96.9471031
MLS Listing,,Single Family Residential,3451 Ridgeoak Way,Farmers Branch,TX,75234,324900,3,2.0,Town North Estates,1972,8930,1959,3,165,,Active,,,http://www.redfin.com/TX/Farmers-Branch/3451-Ridgeoak-Way-75234/home/31343113,NTREIS,14666928,N,Y,32.9196576,-96.8620512
MLS Listing,,Single Family Residential,2616 Volga Ave,Dallas,TX,75216,133000,2,1.0,Fordham Heights,878,6534,1949,3,151,,Active,,,http://www.redfin.com/TX/Dallas/2616-Volga-Ave-75216/home/30888028,NTREIS,14667695,N,Y,32.7074733,-96.7840132
MLS Listing,,Single Family Residential,17214 Stedman Dr,Dallas,TX,75252,535000,3,3.5,Preston Gateway Estates,2464,13852,1977,3,217,,Active,September-12-2021 01:00 PM,September-12-2021 03:00 PM,http://www.redfin.com/TX/Dallas/17214-Stedman-Dr-75252/home/31084883,NTREIS,14660592,N,Y,32.9859179,-96.7958552
MLS Listing,,Single Family Residential,118 Stoneridge Dr,Mesquite,TX,75149,320000,5,3.0,Idlewyld Place Ph 02,3450,5009,2000,3,93,,Active,,,http://www.redfin.com/TX/Mesquite/118-Stoneridge-Dr-75149/home/32231595,NTREIS,14667689,N,Y,32.7674737,-96.6441656
MLS Listing,,Townhouse,9604 Knobby Tree,Dallas,TX,75243,359900,2,2.5,Oak Tree Village Add 01,1930,4356,1975,3,186,225,Active,,,http://www.redfin.com/TX/Dallas/9604-Knobby-Tree-75243/home/31064033,NTREIS,14666803,N,Y,32.8968287,-96.7232956
MLS Listing,,Single Family Residential,18811 Park Grove Ln,Dallas,TX,75287,424000,3,2.5,Highlands Pkwy,2655,5663,1992,3,160,,Active,,,http://www.redfin.com/TX/Dallas/18811-Park-Grove-Ln-75287/home/32016183,NTREIS,14667259,N,Y,33.0054279,-96.8415069
MLS Listing,,Single Family Residential,1320 Flanders St,Dallas,TX,75208,569000,3,2.5,Flanders Heights Rev,2066,7667,1943,3,275,,Active,,,http://www.redfin.com/TX/Dallas/1320-Flanders-St-75208/home/30839104,NTREIS,14667613,N,Y,32.7681278,-96.842847
MLS Listing,,Townhouse,9801 Smokefeather Ln,Dallas,TX,75243,239900,4,2.5,Chimney Hill 4th Inst,2133,3006,1976,3,112,350,Active,,,http://www.redfin.com/TX/Dallas/9801-Smokefeather-Ln-75243/home/31109171,NTREIS,14667585,N,Y,32.9209722,-96.738402
MLS Listing,,Condo/Co-op,3110 Thomas Ave #121,Dallas,TX,75204,639000,2,2.0,588 Condos,2514,51139,1998,3,254,528,Active,,,http://www.redfin.com/TX/Dallas/3110-Thomas-Ave-75204/unit-121/home/30764860,NTREIS,14667297,N,Y,32.7984959,-96.7944461
MLS Listing,,Single Family Residential,5720 Ranchero Ln,Dallas,TX,75236,530000,3,3.0,ROBERTS & ROBERTS BLK,3923,269636,1984,3,135,,Active,,,http://www.redfin.com/TX/Dallas/5720-Ranchero-Ln-75236/home/31105735,NTREIS,14667607,N,Y,32.677007,-96.9192783
MLS Listing,,Single Family Residential,4727 Stokes St,Dallas,TX,75216,255000,4,2.0,Hines Sub,1744,7884,2021,3,146,,Active,,,http://www.redfin.com/TX/Dallas/4727-Stokes-St-75216/home/31040022,NTREIS,14667606,N,Y,32.71753,-96.7457403
MLS Listing,,Condo/Co-op,3311 Blackburn St #109,Dallas,TX,75204,225000,1,1.0,Colonade At Turtle Creek Condo,790,60113,1982,3,285,232,Active,,,http://www.redfin.com/TX/Dallas/3311-Blackburn-St-75204/unit-109/home/30745086,NTREIS,14667526,N,Y,32.8107869,-96.7984947
MLS Listing,,Single Family Residential,2824 Coteau Way,Dallas,TX,75227,450000,4,2.5,Enclave At Grove Hill,4017,7928,2003,3,112,53,Active,September-12-2021 02:00 PM,September-12-2021 04:00 PM,http://www.redfin.com/TX/Dallas/2824-Coteau-Way-75227/home/30740464,NTREIS,14666377,N,Y,32.7880688,-96.7155979
MLS Listing,,Single Family Residential,5310 Hilton Head Dr,Dallas,TX,75287,725000,4,3.0,Bent Tree North,3112,14810,1984,3,233,33,Active,September-12-2021 02:00 PM,September-12-2021 04:00 PM,http://www.redfin.com/TX/Dallas/5310-Hilton-Head-Dr-75287/home/31846634,NTREIS,14667290,N,Y,32.9883299,-96.8259295
MLS Listing,,Single Family Residential,2232 Roundrock Dr,Carrollton,TX,75007,315000,3,2.0,Morningside 1,1702,7536,1980,3,185,,Active,,,http://www.redfin.com/TX/Carrollton/2232-Roundrock-Dr-75007/home/33072957,NTREIS,14667547,N,Y,32.9887604,-96.8703461
MLS Listing,,Condo/Co-op,10526 Stone Canyon Rd #103,Dallas,TX,75230,140000,1,1.0,Hollows North,740,452850,1970,3,189,367,Active,,,http://www.redfin.com/TX/Dallas/10526-Stone-Canyon-Rd-75230/unit-103/home/30995615,NTREIS,14667550,N,Y,32.8888718,-96.7748785
MLS Listing,,Single Family Residential,10903 Aledo Dr,Dallas,TX,75228,267000,3,2.0,Casa View Heights,1240,7579,1949,3,215,,Active,,,http://www.redfin.com/TX/Dallas/10903-Aledo-Dr-75228/home/30864313,NTREIS,14667515,N,Y,32.8452449,-96.6832242
MLS Listing,,Townhouse,13618 Flagstone Ln,Dallas,TX,75240,195000,2,2.0,Brookgreen Twnhs 03,1208,3659,1970,3,161,270,Active,September-12-2021 12:00 PM,September-12-2021 02:00 PM,http://www.redfin.com/TX/Dallas/13618-Flagstone-Ln-75240/home/31047605,NTREIS,14667507,N,Y,32.9316986,-96.7685967
MLS Listing,,Single Family Residential,5214 Vickery Blvd,Dallas,TX,75206,775000,3,2.0,Vickery Place,1640,8712,1926,3,473,,Active,,,http://www.redfin.com/TX/Dallas/5214-Vickery-Blvd-75206/home/30807588,NTREIS,14656563,N,Y,32.8221073,-96.7817187
MLS Listing,,Single Family Residential,7302 Coronado Ave,Dallas,TX,75214,595000,3,2.0,Gaston Terrace Add,1472,8843,1939,3,404,,Active,September-12-2021 01:00 PM,September-12-2021 03:00 PM,http://www.redfin.com/TX/Dallas/7302-Coronado-Ave-75214/home/30818331,NTREIS,14666575,N,Y,32.8096668,-96.7333683
MLS Listing,,Single Family Residential,5603 Quail Ct,Dallas,TX,75249,250000,3,2.0,Mountain Vista,1587,6142,1995,3,158,,Active,September-12-2021 12:00 PM,September-12-2021 03:00 PM,http://www.redfin.com/TX/Dallas/5603-Quail-Ct-75249/home/31156288,NTREIS,14667475,N,Y,32.6568198,-96.9622471
MLS Listing,,Condo/Co-op,300 Rush Creek Dr,Heath,TX,75032,250000,3,3.0,Rush Creek,1452,2178,1972,3,172,479,Active,,,http://www.redfin.com/TX/Heath/300-Rush-Creek-Dr-75032/home/33920308,NTREIS,14666147,N,Y,32.8263566,-96.4942673
MLS Listing,,Single Family Residential,9914 Crystal Valley Way,Dallas,TX,75227,234900,4,2.5,Parkway Village Ph I,1988,3528,2005,3,118,13,Active,,,http://www.redfin.com/TX/Dallas/9914-Crystal-Valley-Way-75227/home/30741359,NTREIS,14667461,N,Y,32.7652469,-96.6513887
MLS Listing,,Single Family Residential,730 Arbol,Irving,TX,75039,590000,3,2.5,La Villita Ph 01d,3019,4574,2007,3,195,,Active,,,http://www.redfin.com/TX/Irving/730-Arbol-75039/home/30778560,NTREIS,14667453,N,Y,32.9044475,-96.9343949
MLS Listing,,Condo/Co-op,5234 Fleetwood Oaks Ave #218,Dallas,TX,75235,175000,2,2.0,Greenbrier Place Condos,971,132422,1963,3,180,283,Active,,,http://www.redfin.com/TX/Dallas/5234-Fleetwood-Oaks-Ave-75235/unit-218/home/31137871,NTREIS,14667308,N,Y,32.8183391,-96.830338
MLS Listing,,Single Family Residential,2022 Mayflower Dr,Dallas,TX,75208,475000,3,2.0,Stevens Park Estates,1735,8146,1931,3,274,,Active,,,http://www.redfin.com/TX/Dallas/2022-Mayflower-Dr-75208/home/30848522,NTREIS,14655518,N,Y,32.7579724,-96.8555484
MLS Listing,,Single Family Residential,1207 Pioneer Dr,Dallas,TX,75224,275000,4,2.0,Elmwood,1394,7841,1926,3,197,,Active,,,http://www.redfin.com/TX/Dallas/1207-Pioneer-Dr-75224/home/30843174,NTREIS,14667344,N,Y,32.728367,-96.8423235
MLS Listing,,Condo/Co-op,6211 W Northwest Hwy #2306,Dallas,TX,75225,279000,2,2.0,Preston Tower Condo,1132,185522,1966,3,246,978,Active,,,http://www.redfin.com/TX/Dallas/6211-W-Northwest-Hwy-75225/unit-2306/home/30874531,NTREIS,14666054,N,Y,32.8662169,-96.800016
MLS Listing,,Single Family Residential,9346 Hathaway St,Dallas,TX,75220,4300000,6,6.5,Batesons,7197,47611,1993,3,597,,Active,,,http://www.redfin.com/TX/Dallas/9346-Hathaway-St-75220/home/30879685,NTREIS,14666437,N,Y,32.8696561,-96.8117805
MLS Listing,,Single Family Residential,1231 S Oak Cliff Blvd,Dallas,TX,75208,289000,3,2.0,Sunset Annex,1080,8886,1925,3,268,,Active,,,http://www.redfin.com/TX/Dallas/1231-S-Oak-Cliff-Blvd-75208/home/30848382,NTREIS,14667367,N,Y,32.732206,-96.8532561
MLS Listing,,Single Family Residential,4610 Beaus Way,Garland,TX,75043,300000,3,2.5,Hills Westlake,1930,6839,2018,3,155,,Active,,,http://www.redfin.com/TX/Garland/4610-Beaus-Way-75043/home/31406143,NTREIS,14667287,N,Y,32.8422899,-96.5618456
MLS Listing,,Single Family Residential,13225 Blossomheath Ln,Dallas,TX,75240,195000,3,1.5,Spring Valley Park 01,1108,8538,1959,3,176,,Active,,,http://www.redfin.com/TX/Dallas/13225-Blossomheath-Ln-75240/home/31026005,NTREIS,14667370,N,Y,32.9288923,-96.7714622
MLS Listing,,Single Family Residential,9526 Tarleton St,Dallas,TX,75218,499900,3,2.0,Lake Highlands,2218,8320,1938,3,225,,Active,,,http://www.redfin.com/TX/Dallas/9526-Tarleton-St-75218/home/30867051,NTREIS,14665255,N,Y,32.8450032,-96.710081
MLS Listing,,Single Family Residential,9438 Sophora Dr,Dallas,TX,75249,182000,4,2.0,Woods,1744,6795,1979,3,104,,Active,,,http://www.redfin.com/TX/Dallas/9438-Sophora-Dr-75249/home/31117631,NTREIS,14665950,N,Y,32.6252174,-96.9514236
MLS Listing,,Single Family Residential,13132 Brushcreek Ln,Dallas,TX,75240,275000,4,2.0,Spring Valley 02,1893,13896,1967,3,145,,Active,,,http://www.redfin.com/TX/Dallas/13132-Brushcreek-Ln-75240/home/31025278,NTREIS,14667235,N,Y,32.928036,-96.7760038
MLS Listing,,Single Family Residential,11107 Westmere Cir,Dallas,TX,75230,1100000,3,2.0,North Lake Estates,3411,17293,1956,3,322,,Active,September-12-2021 03:00 PM,September-12-2021 05:00 PM,http://www.redfin.com/TX/Dallas/11107-Westmere-Cir-75230/home/30988432,NTREIS,14666404,N,Y,32.8989549,-96.7921896
MLS Listing,,Vacant Land,4950 Wedgewood Ln,Dallas,TX,75220,3500000,0,,Ridgewood Rev,,78321,1955,3,,,Active,,,http://www.redfin.com/TX/Dallas/4950-Wedgewood-Ln-75220/home/31136765,NTREIS,14667158,N,Y,32.8733971,-96.8239834
MLS Listing,,Single Family Residential,2658 Volga Ave,Dallas,TX,75216,127500,3,1.0,Fordham Heights #2,1150,6490,1949,3,111,,Active,,,http://www.redfin.com/TX/Dallas/2658-Volga-Ave-75216/home/30887848,NTREIS,14667326,N,Y,32.7082158,-96.7824651
MLS Listing,,Single Family Residential,11108 Dwarfs Cir,Dallas,TX,75229,1750000,6,5.5,4th Instl Midway Hills 4,4536,16117,2021,3,386,,Active,,,http://www.redfin.com/TX/Dallas/11108-Dwarfs-Cir-75229/home/30927149,NTREIS,14660895,N,Y,32.9002346,-96.8430355
MLS Listing,,Condo/Co-op,1122 Jackson St #1101,Dallas,TX,75202,330000,1,1.5,Soco Urban Loft Condos,1190,42863,1925,3,277,572,Active,,,http://www.redfin.com/TX/Dallas/1122-Jackson-St-75202/unit-1101/home/30765489,NTREIS,14666649,N,Y,32.7783902,-96.8012287
MLS Listing,,Single Family Residential,6418 Redpine Rd,Dallas,TX,75248,837000,4,3.0,Prestonwood,3120,8712,1980,3,268,7,Active,,,http://www.redfin.com/TX/Dallas/6418-Redpine-Rd-75248/home/31111761,NTREIS,14665310,N,Y,32.9749944,-96.7957925
MLS Listing,,Multi-Family (2-4 Unit),7318 Woodthrush Dr,Dallas,TX,75230,770000,6,4.0,Crest Meadow Estates,3627,10062,1969,3,212,,Active,September-12-2021 02:00 PM,September-12-2021 04:00 PM,http://www.redfin.com/TX/Dallas/7318-Woodthrush-Dr-75230/home/30992886,NTREIS,14666069,N,Y,32.8894975,-96.7796596
MLS Listing,,Single Family Residential,5931 Ellsworth Ave,Dallas,TX,75206,425000,2,1.0,Stonewall Terrace,1257,6098,1940,3,338,,Active,,,http://www.redfin.com/TX/Dallas/5931-Ellsworth-Ave-75206/home/30821554,NTREIS,14667249,N,Y,32.8341849,-96.7643877
MLS Listing,,Single Family Residential,3723 Sistine Mews,Dallas,TX,75236,348000,3,2.5,Capella Park Ph 01,1925,4400,2018,3,181,99,Active,,,http://www.redfin.com/TX/Dallas/3723-Sistine-Mews-75236/home/30782412,NTREIS,14664320,N,Y,32.6972454,-96.9458231
MLS Listing,,Condo/Co-op,3110 Ross Ave #3,Dallas,TX,75204,474900,3,3.5,Veranda,1968,40598,2006,3,241,125,Active,,,http://www.redfin.com/TX/Dallas/3110-Ross-Ave-75204/unit-3/home/30776588,NTREIS,14662447,N,Y,32.7934838,-96.7908543
MLS Listing,,Townhouse,3507 Dickason Ave Unit B,Dallas,TX,75219,457000,2,2.5,Sale Street Twnhms,2201,1307,1981,3,208,285,Active,,,http://www.redfin.com/TX/Dallas/3507-Dickason-Ave-75219/unit-B/home/108485819,NTREIS,14666912,N,Y,32.8062002,-96.8071124
MLS Listing,,Single Family Residential,14304 Regency Pl,Dallas,TX,75254,459000,3,2.0,Regency Place,2027,5053,1983,3,226,70,Active,,,http://www.redfin.com/TX/Dallas/14304-Regency-Pl-75254/home/31073655,NTREIS,14663314,N,Y,32.9424214,-96.8019026
MLS Listing,,Townhouse,3828 San Jacinto St,Dallas,TX,75204,439900,2,2.0,San Jacinto Street Twnhms,1780,2919,2003,3,247,200,Active,September-12-2021 02:00 PM,September-12-2021 04:00 PM,http://www.redfin.com/TX/Dallas/3828-San-Jacinto-St-75204/home/30730171,NTREIS,14662945,N,Y,32.7977329,-96.7843498
MLS Listing,,Single Family Residential,4327 Quail Hollow Rd,Dallas,TX,75287,500000,4,3.0,Country Brook Sec One,3116,8276,1981,3,160,55,Active,September-12-2021 01:00 PM,September-12-2021 03:00 PM,http://www.redfin.com/TX/Dallas/4327-Quail-Hollow-Rd-75287/home/31854527,NTREIS,14637588,N,Y,33.0002252,-96.8345765
MLS Listing,,Single Family Residential,3665 Townsend Dr,Dallas,TX,75229,777000,4,3.0,Royal Hills 3rd Inst,3552,15943,1960,3,219,,Active,,,http://www.redfin.com/TX/Dallas/3665-Townsend-Dr-75229/home/30931032,NTREIS,14665706,N,Y,32.899362,-96.8565637
MLS Listing,,Single Family Residential,6142 Palo Pinto Ave,Dallas,TX,75214,699000,4,2.5,Lakewood Heights,2350,7492,1926,3,297,,Active,,,http://www.redfin.com/TX/Dallas/6142-Palo-Pinto-Ave-75214/home/30810568,NTREIS,14647853,N,Y,32.8198244,-96.7598338
MLS Listing,,Single Family Residential,2234 Cheryl Ln,Dallas,TX,75224,485000,5,4.0,Druid Hills,3098,8668,1958,3,157,,Active,,,http://www.redfin.com/TX/Dallas/2234-Cheryl-Ln-75224/home/30900103,NTREIS,14660790,N,Y,32.6955285,-96.8554956
MLS Listing,,Condo/Co-op,3210 Carlisle St #37,Dallas,TX,75204,580000,2,2.5,Vine Condo,2306,,2006,3,252,278,Active,,,http://www.redfin.com/TX/Dallas/3210-Carlisle-St-75204/unit-37/home/30783900,NTREIS,14666940,N,Y,32.8042867,-96.8021794
MLS Listing,,Multi-Family (2-4 Unit),5918 Glen Heather Dr,Dallas,TX,75252,369990,3,2.0,Prestonwood West #2-3,1746,4356,1983,3,212,104,Active,,,http://www.redfin.com/TX/Dallas/5918-Glen-Heather-Dr-75252/home/32164630,NTREIS,14667009,N,Y,32.9913311,-96.8063111
MLS Listing,,Condo/Co-op,1918 Olive St #3503,Dallas,TX,75201,5750000,3,3.5,Museum Tower Condo,4765,,2014,3,1207,4480,Active,,,http://www.redfin.com/TX/Dallas/1918-Olive-St-75201/unit-3503/home/52060001,NTREIS,14660608,N,Y,32.7891925,-96.8000171
MLS Listing,,Single Family Residential,3600 Purdue St,University Park,TX,75225,2650000,5,6.0,University Heights,5601,7710,2009,3,473,,Active,,,http://www.redfin.com/TX/Dallas/3600-Purdue-Ave-75225/home/32108460,NTREIS,14661981,N,Y,32.8541982,-96.7928631
MLS Listing,,Single Family Residential,319 N Winnetka Ave,Dallas,TX,75208,658000,3,3.0,Winnetka Heights,2512,7187,1924,3,262,,Active,,,http://www.redfin.com/TX/Dallas/319-N-Winnetka-Ave-75208/home/30827603,NTREIS,14662790,N,Y,32.7479705,-96.8418629
MLS Listing,,Single Family Residential,7133 Echo Bluff Dr,Dallas,TX,75248,800000,5,3.5,Prestonwood,2984,15987,1977,3,268,,Active,,,http://www.redfin.com/TX/Dallas/7133-Echo-Bluff-Dr-75248/home/31117329,NTREIS,14665893,N,Y,32.9733386,-96.7823396
MLS Listing,,Single Family Residential,8574 Sweetwood Dr,Dallas,TX,75228,380000,3,2.0,Claremont Park 02,1734,8538,1962,3,219,,Active,,,http://www.redfin.com/TX/Dallas/8574-Sweetwood-Dr-75228/home/30969188,NTREIS,14656750,N,Y,32.806416,-96.6958312
MLS Listing,,Single Family Residential,3322 Cherrywood Ave,Dallas,TX,75235,275000,2,1.0,Cherrywood,1350,7057,1947,4,204,,Active,September-12-2021 12:00 PM,September-12-2021 02:00 PM,http://www.redfin.com/TX/Dallas/3322-Cherrywood-Ave-75235/home/30881526,NTREIS,14666741,N,Y,32.8278044,-96.826908
MLS Listing,,Single Family Residential,616 Berkshire Ln,Coppell,TX,75019,750000,4,4.0,Fairways At Riverchase Rep,3798,24394,1996,4,197,100,Active,September-12-2021 01:00 PM,September-12-2021 04:00 PM,http://www.redfin.com/TX/Coppell/616-Berkshire-Ln-75019/home/31262919,NTREIS,14666384,N,Y,32.9565179,-96.9457609
MLS Listing,,Multi-Family (2-4 Unit),13335 Daystrom Ct,Dallas,TX,75243,274900,3,2.0,Richland Park Estates,1627,8059,1979,4,169,,Active,,,http://www.redfin.com/TX/Dallas/13335-Daystrom-Ct-75243/home/31101277,NTREIS,14667145,N,Y,32.9310864,-96.7124404
MLS Listing,,Condo/Co-op,7410 E Northwest Hwy #101,Dallas,TX,75231,284900,2,2.5,White Rock West Condo,1333,197806,1973,4,214,307,Active,September-12-2021 02:00 PM,September-12-2021 04:00 PM,http://www.redfin.com/TX/Dallas/7410-E-NW-Hwy-75231/unit-101/home/30869653,NTREIS,14665082,N,Y,32.853423,-96.733276
MLS Listing,,Single Family Residential,9520 Rocky Branch Dr,Dallas,TX,75243,835000,4,3.0,Town Creek,3202,10629,1976,4,261,,Active,September-12-2021 01:30 PM,September-12-2021 03:00 PM,http://www.redfin.com/TX/Dallas/9520-Rocky-Branch-Dr-75243/home/31107139,NTREIS,14664797,N,Y,32.8982867,-96.7348063
MLS Listing,,Condo/Co-op,11490 Audelia Rd #325,Dallas,TX,75243,109500,2,2.0,Cambridge Condo,1087,435295,1980,4,101,442,Active,,,http://www.redfin.com/TX/Dallas/11490-Audelia-Rd-75243/unit-325/home/31060934,NTREIS,14667159,N,Y,32.9054899,-96.7166501
MLS Listing,,Vacant Land,2749 Bethurum Ave,Dallas,TX,75215,60000,0,,Ideal,,8407,,4,,,Active,,,http://www.redfin.com/TX/Dallas/2749-Bethurum-Ave-75215/home/30816342,NTREIS,14667141,N,Y,32.746685,-96.751201
MLS Listing,,Single Family Residential,428 Parkview Ave,Dallas,TX,75223,239000,4,1.5,Mount Auburn,1116,7492,1930,4,214,,Active,,,http://www.redfin.com/TX/Dallas/428-Parkview-Ave-75223/home/30801381,NTREIS,14666819,N,Y,32.8002202,-96.7513752
MLS Listing,,Single Family Residential,2747 Bethurum Ave,Dallas,TX,75215,105000,2,1.0,Ideal,888,6273,1942,4,118,,Active,,,http://www.redfin.com/TX/Dallas/2747-Bethurum-Ave-75215/home/30816341,NTREIS,14667125,N,Y,32.7465569,-96.7514549
MLS Listing,,Single Family Residential,8627 Westglen Dr,Dallas,TX,75228,411000,2,2.0,Westglen Park 01,1260,8320,1953,4,326,,Active,,,http://www.redfin.com/TX/Dallas/8627-Westglen-Dr-75228/home/30999374,NTREIS,14667097,N,Y,32.8146884,-96.7027677
MLS Listing,,Condo/Co-op,5335 Bent Tree Forest Dr #237,Dallas,TX,75248,140000,1,1.0,Bent Tree Forest Drive Condos,687,381847,1981,4,204,176,Active,,,http://www.redfin.com/TX/Dallas/5335-Bent-Tree-Forest-Dr-75248/unit-237/home/31131931,NTREIS,14667014,N,Y,32.965961,-96.816565
MLS Listing,,Single Family Residential,6119 Big Bend Dr,Mesquite,TX,75150,219900,3,2.5,Northwest Park,2156,7797,1981,4,102,,Active,,,http://www.redfin.com/TX/Mesquite/6119-Big-Bend-Dr-75150/home/31871160,NTREIS,14667072,N,Y,32.8448918,-96.6257147
MLS Listing,,Townhouse,1221 Lake Pointe Way,Richardson,TX,75080,490000,4,3.5,Lake Park Estate & University Worl,2187,2309,2007,4,224,386,Active,,,http://www.redfin.com/TX/Richardson/1221-Lake-Pointe-Way-75080/home/30779052,NTREIS,14667055,N,Y,32.9808512,-96.7639432
MLS Listing,,Condo/Co-op,1918 Ashby St Unit 3C,Dallas,TX,75204,475000,2,2.5,Ashby Condos,1917,17598,2019,4,248,259,Active,,,http://www.redfin.com/TX/Dallas/1918-Ashby-St-75204/unit-3C/home/147236029,NTREIS,14666760,N,Y,32.8042075,-96.7833438
MLS Listing,,Single Family Residential,11364 Lanewood Cir,Dallas,TX,75218,359900,4,2.0,Lochwood,1280,8276,1958,4,281,,Active,,,http://www.redfin.com/TX/Dallas/11364-Lanewood-Cir-75218/home/30863940,NTREIS,14666933,N,Y,32.8565437,-96.6841538
MLS Listing,,Single Family Residential,18628 Vista Del Sol,Dallas,TX,75287,374900,4,3.0,Parkway Village Sec One,2556,5227,1985,4,147,63,Active,,,http://www.redfin.com/TX/Dallas/18628-Vista-Del-Sol-75287/home/32195614,NTREIS,14666974,N,Y,33.0030295,-96.8341368
MLS Listing,,Condo/Co-op,3800 Holland Ave #13,Dallas,TX,75219,412500,2,2.5,Marc Condo,1449,31058,2005,4,285,263,Active,,,http://www.redfin.com/TX/Dallas/3800-Holland-Ave-75219/unit-13/home/30761674,NTREIS,14654536,N,Y,32.8137774,-96.8037843
MLS Listing,,Single Family Residential,4702 Colgate Ln,Garland,TX,75042,245000,4,1.0,Forest Ridge 01,1575,7187,1965,4,156,,Active,,,http://www.redfin.com/TX/Garland/4702-Colgate-Ln-75042/home/31389860,NTREIS,14666996,N,Y,32.9190415,-96.7042094
MLS Listing,,Single Family Residential,3936 Lost Creek Dr,Dallas,TX,75224,537500,3,2.0,Oak Park Estates,2301,33193,1972,4,234,,Active,September-12-2021 12:00 PM,September-12-2021 03:00 PM,http://www.redfin.com/TX/Dallas/3936-Lost-Creek-Dr-75224/home/30900060,NTREIS,14660865,N,Y,32.6959147,-96.8458465
MLS Listing,,Single Family Residential,12133 Cross Creek Dr,Dallas,TX,75243,482000,4,3.0,Country Forest Ph 02,3426,10454,1979,4,141,,Active,,,http://www.redfin.com/TX/Dallas/12133-Cross-Creek-Dr-75243/home/31109756,NTREIS,14666984,N,Y,32.9123365,-96.7266332
MLS Listing,,Single Family Residential,5026 Alcott St,Dallas,TX,75206,379500,2,1.0,Alcott Fitzhugh Heights,868,6795,1939,4,437,,Active,,,http://www.redfin.com/TX/Dallas/5026-Alcott-St-75206/home/30808568,NTREIS,14666966,N,Y,32.8167582,-96.7848919
MLS Listing,,Single Family Residential,1502 Ridge Rd,Rockwall,TX,75087,449900,4,3.0,Lake Ray Hubbard Estate,3082,12240,1980,4,146,,Active,,,http://www.redfin.com/TX/Rockwall/1502-Ridge-Rd-75087/home/33911118,NTREIS,14664338,N,Y,32.9105172,-96.4631229
MLS Listing,,Single Family Residential,3215 Damascus Way,Farmers Branch,TX,75234,340000,3,2.0,Chapel Hill 02,1281,7536,1958,4,265,,Active,,,http://www.redfin.com/TX/Farmers-Branch/3215-Damascus-Way-75234/home/31332843,NTREIS,14665420,N,Y,32.9176083,-96.8706394
MLS Listing,,Single Family Residential,2933 Cypress Ave,Dallas,TX,75227,115000,3,1.0,Turner Estates,929,10411,1950,4,124,,Active,,,http://www.redfin.com/TX/Dallas/2933-Cypress-Ave-75227/home/30943429,NTREIS,14666557,N,Y,32.7626576,-96.6621206
MLS Listing,,Single Family Residential,10346 Bel Aire Dr,Dallas,TX,75218,499900,3,2.0,Bel Aire Estates 1,2081,8756,2003,4,240,,Active,,,http://www.redfin.com/TX/Dallas/10346-Bel-Aire-Dr-75218/home/31022342,NTREIS,14666901,N,Y,32.8586153,-96.7032274
MLS Listing,,Single Family Residential,1507 Gillette St,Dallas,TX,75217,187000,3,1.5,Piedmont Park 01,1260,7579,1955,4,148,,Active,,,http://www.redfin.com/TX/Dallas/1507-Gillette-St-75217/home/30917011,NTREIS,14666893,N,Y,32.738224,-96.7057974
MLS Listing,,Single Family Residential,7932 Hillfawn Cir,Dallas,TX,75248,472500,4,2.0,Spring Creek,2162,11892,1966,4,219,4,Active,September-12-2021 02:00 PM,September-12-2021 04:00 PM,http://www.redfin.com/TX/Dallas/7932-Hillfawn-Cir-75248/home/31074658,NTREIS,14666852,N,Y,32.9546859,-96.7700818
MLS Listing,,Single Family Residential,520 Wayne St,Dallas,TX,75223,239900,3,1.0,Mount Auburn,1568,7492,1924,4,153,,Active,,,http://www.redfin.com/TX/Dallas/520-Wayne-St-75223/home/30800864,NTREIS,14666880,N,Y,32.7989972,-96.7514065
MLS Listing,,Vacant Land,1608 W 12th St,Dallas,TX,75208,199999,0,,Taylor & Lowrance,,8102,,4,,,Active,,,http://www.redfin.com/TX/Dallas/1608-W-12th-St-75208/home/30832048,NTREIS,14666836,N,Y,32.740998,-96.847236
MLS Listing,,Single Family Residential,4344 N Capistrano Dr,Dallas,TX,75287,439000,3,2.5,PARKWAY VILLAGE SECTION TW O,2399,3920,1990,4,183,63,Active,September-12-2021 01:00 PM,September-12-2021 03:00 PM,http://www.redfin.com/TX/Dallas/4344-N-Capistrano-Dr-75287/home/32030336,NTREIS,14666519,N,Y,33.006726,-96.8349952
MLS Listing,,Single Family Residential,3600 Routh St,Dallas,TX,75219,1100000,2,2.0,Oak Lawn Place,1906,4487,1979,4,577,,Active,,,http://www.redfin.com/TX/Dallas/3600-Routh-St-75219/home/30794601,NTREIS,14666829,N,Y,32.8041493,-96.8110898
MLS Listing,,Single Family Residential,6402 Covington,Dallas,TX,75214,550000,3,2.5,Covington Place,1501,6534,1941,4,366,,Active,September-12-2021 10:00 AM,September-12-2021 12:00 PM,http://www.redfin.com/TX/Dallas/6402-Covington-Ln-75214/home/30802335,NTREIS,14666620,N,Y,32.8054341,-96.7484584
MLS Listing,,Vacant Land,11232 Hillcrest Rd,Dallas,TX,75230,525000,0,,Eudora Estates 3,,14985,,4,,,Active,,,http://www.redfin.com/TX/Dallas/11232-Hillcrest-Rd-75230/home/30989164,NTREIS,14666124,N,Y,32.900879,-96.78788
MLS Listing,,Condo/Co-op,3883 Turtle Creek Blvd #1718,Dallas,TX,75219,345000,2,2.0,Twenty-One Turtle Creek Condos,1131,137606,1963,4,305,841,Active,,,http://www.redfin.com/TX/Dallas/3883-Turtle-Creek-Blvd-75219/unit-1718/home/30797513,NTREIS,14665733,N,Y,32.8153072,-96.7998987
MLS Listing,,Single Family Residential,11226 Hillcrest Rd,Dallas,TX,75230,569000,4,3.5,Eudora Estates #3,2528,14288,1960,4,225,,Active,September-12-2021 02:00 PM,September-12-2021 04:00 PM,http://www.redfin.com/TX/Dallas/11226-Hillcrest-Rd-75230/home/30989162,NTREIS,14665427,N,Y,32.9005874,-96.7879227
MLS Listing,,Multi-Family (5+ Unit),942 E Jefferson Blvd,Dallas,TX,75203,4500000,0,19.5,Diamonds,16886,43560,2021,4,266,300,Active,,,http://www.redfin.com/TX/Dallas/942-E-Jefferson-Blvd-75203/home/173533582,NTREIS,14666762,N,Y,32.752531,-96.810854
MLS Listing,,Townhouse,1519 Matilda St,Dallas,TX,75206,400000,2,2.5,Hudson Street Twnhms South,1389,1394,2010,4,288,386,Active,September-12-2021 01:00 PM,September-12-2021 03:00 PM,http://www.redfin.com/TX/Dallas/1519-Matilda-St-75206/home/32395929,NTREIS,14666085,N,Y,32.8095764,-96.7687486
MLS Listing,,Single Family Residential,3118 Rosslynn Ct,Seagoville,TX,75159,250000,3,2.0,Highland Meadows Ph 01,1578,7187,2006,4,158,28,Active,,,http://www.redfin.com/TX/Seagoville/3118-Rosslyn-Ct-75159/home/30770553,NTREIS,14665628,N,Y,32.6917677,-96.5539238
MLS Listing,,Condo/Co-op,5609 SMU Blvd #202,Dallas,TX,75206,225000,1,1.0,Shelby Residences,752,28793,2008,4,299,,Active,,,http://www.redfin.com/TX/Dallas/5609-SMU-Blvd-75206/unit-202/home/110137403,NTREIS,14666718,N,Y,32.842467,-96.7722361
MLS Listing,,Multi-Family (2-4 Unit),3027 Allister St,Dallas,TX,75229,225000,3,2.0,Chapel Forest 0 128 Ac,1282,5271,1984,4,176,,Active,,,http://www.redfin.com/TX/Dallas/3027-Allister-St-75229/home/30934718,NTREIS,14665332,N,Y,32.90802,-96.874471
MLS Listing,,Condo/Co-op,6466 Bordeaux Ave,Dallas,TX,75209,235000,2,1.0,Bordeaux Village Condos,1029,609840,1951,4,228,284,Active,,,http://www.redfin.com/TX/Dallas/6466-Bordeaux-Ave-75209/home/31138059,NTREIS,14665931,N,Y,32.8355432,-96.8261302
MLS Listing,,Single Family Residential,2843 Mira Vista Ln,Rockwall,TX,75032,637000,4,4.0,Lago Vista,3866,19994,2000,4,165,18,Active,,,http://www.redfin.com/TX/Rockwall/2843-Mira-Vista-Ln-75032/home/33932756,NTREIS,14662305,N,Y,32.8884048,-96.4786117
MLS Listing,,Condo/Co-op,15221 Berry Trl #506,Dallas,TX,75248,180000,2,2.0,Preston Bend Village Ph 02,1052,220283,1981,4,171,309,Active,September-12-2021 03:00 PM,September-12-2021 05:00 PM,http://www.redfin.com/TX/Dallas/15221-Berry-Trl-75248/unit-506/home/31129025,NTREIS,14665288,N,Y,32.9555491,-96.8017854
MLS Listing,,Single Family Residential,3470 Timberview Rd,Dallas,TX,75229,470000,4,2.0,Timberbrook 4th Inst Rev,1764,9714,1956,4,266,,Active,,,http://www.redfin.com/TX/Dallas/3470-Timberview-Rd-75229/home/30929283,NTREIS,14666664,N,Y,32.8847553,-96.8628602
MLS Listing,,Single Family Residential,7339 Emory Oak Ln,Dallas,TX,75249,220000,3,2.0,Woods,1667,6839,1978,4,132,,Active,September-12-2021 12:00 AM,September-12-2021 04:00 PM,http://www.redfin.com/TX/Dallas/7339-Emory-Oak-Ln-75249/home/31117179,NTREIS,14657097,N,Y,32.6292181,-96.9513817
MLS Listing,,Single Family Residential,3434 Granada Ave,University Park,TX,75205,700000,2,2.5,University Annex 02 Inst Rep,1776,4312,1978,4,394,,Active,,,http://www.redfin.com/TX/Dallas/3434-Granada-Ave-75205/home/32099748,NTREIS,14634105,N,Y,32.8419917,-96.7886996
MLS Listing,,Condo/Co-op,5859 Frankford Rd #601,Dallas,TX,75252,235000,2,2.0,Cobblestone Square,1124,43560,1985,4,209,202,Active,,,http://www.redfin.com/TX/Dallas/5859-Frankford-Rd-75252/unit-601/home/32016523,NTREIS,14664374,N,Y,32.998927,-96.803671
MLS Listing,,Vacant Land,3604 Wendelkin St,Dallas,TX,75215,75000,0,,Dukes J C,,8015,,4,,,Active,,,http://www.redfin.com/TX/Dallas/3604-Wendelkin-St-75215/home/30795920,NTREIS,14666084,N,Y,32.7583569,-96.770476
MLS Listing,,Condo/Co-op,2525 N Pearl St #1605,Dallas,TX,75201,3495000,2,3.5,Residences Condo In Uptown,3552,,2005,4,984,3778,Active,,,http://www.redfin.com/TX/Dallas/2525-N-Pearl-St-75201/unit-1605/home/30783277,NTREIS,14660575,N,Y,32.792511,-96.803605
MLS Listing,,Townhouse,15739 Seabolt #29,Addison,TX,75001,360000,2,2.5,Townhomes Of District A Ph 01-11,1677,262623,2005,4,215,340,Active,,,http://www.redfin.com/TX/Addison/15739-Seabolt-Pl-75001/unit-29/home/30765868,NTREIS,14665684,N,Y,32.9630836,-96.8252942
MLS Listing,,Single Family Residential,2650 Andrea Ln,Dallas,TX,75228,279000,4,2.0,Casa View Oaks 08,1454,9365,1955,4,192,,Active,,,http://www.redfin.com/TX/Dallas/2650-Andrea-Ln-75228/home/31002647,NTREIS,14663968,N,Y,32.8274712,-96.6683643
MLS Listing,,Single Family Residential,3234 San Vicente Ave,Dallas,TX,75228,289000,3,2.0,Casa View Heights Instl 10,1495,8712,1955,4,193,,Active,,,http://www.redfin.com/TX/Dallas/3234-San-Vicente-Ave-75228/home/31003552,NTREIS,14648715,N,Y,32.8336873,-96.6607843
MLS Listing,,Single Family Residential,9724 Gatecrest Dr,Dallas,TX,75238,849000,3,2.0,White Rock North,3069,9017,1959,4,277,,Active,September-12-2021 02:00 PM,September-12-2021 04:00 PM,http://www.redfin.com/TX/Dallas/9724-Gatecrest-Dr-75238/home/30881946,NTREIS,14661744,N,Y,32.8715765,-96.7191089
MLS Listing,,Single Family Residential,1970 Kessler Heights Ln,Dallas,TX,75208,624000,3,3.5,High Grove,2482,2222,2017,4,251,125,Active,,,http://www.redfin.com/TX/Dallas/1970-Kessler-Heights-Ln-75208/home/143838008,NTREIS,14665642,N,Y,32.7513389,-96.8511495
MLS Listing,,Single Family Residential,4535 Frank St,Dallas,TX,75210,218000,3,2.0,Magnolia Park,1357,,2021,4,161,,Active,,,http://www.redfin.com/TX/Dallas/4535-Frank-St-75210/home/30815880,NTREIS,14663509,N,Y,32.777268,-96.743977
MLS Listing,,Townhouse,2170 Helsminster Dr,Dallas,TX,75201,635000,3,3.5,Intown Homes Farmers Market,2311,1612,2013,4,275,170,Active,,,http://www.redfin.com/TX/Dallas/2170-Helsminster-Dr-75201/home/59419677,NTREIS,14663114,N,Y,32.7791826,-96.7896829
MLS Listing,,Single Family Residential,3204 Flowerdale Ln,Dallas,TX,75229,465000,4,3.0,Royal Chapel Estates,2135,11369,1968,4,218,,Active,,,http://www.redfin.com/TX/Dallas/3204-Flowerdale-Ln-75229/home/30930141,NTREIS,14666399,N,Y,32.8939161,-96.8727342
MLS Listing,,Condo/Co-op,5128 Westgrove Dr,Dallas,TX,75248,425000,2,2.5,Lakes of Bent Tree Condos,1918,417784,1982,4,222,536,Active,September-12-2021 02:00 PM,September-12-2021 04:00 PM,http://www.redfin.com/TX/Dallas/5128-Westgrove-Dr-75248/home/31174171,NTREIS,14660886,N,Y,32.9773028,-96.8209399
MLS Listing,,Single Family Residential,4659 Westside Dr,Highland Park,TX,75209,875000,2,2.0,Highland Park,1574,6882,1945,4,556,,Active,,,http://www.redfin.com/TX/Dallas/4659-Westside-Dr-75209/home/32070128,NTREIS,14646573,N,Y,32.8277521,-96.8182898
MLS Listing,,Single Family Residential,2533 Norwood Dr,Dallas,TX,75228,265000,4,2.0,Casa View Hills,1824,7231,1955,4,145,,Active,,,http://www.redfin.com/TX/Dallas/2533-Norwood-Dr-75228/home/30865789,NTREIS,14666305,N,Y,32.8395647,-96.6706824
MLS Listing,,Vacant Land,4318 Sexton Ln,Dallas,TX,75229,355000,0,,Northcrest,,6708,,4,,,Active,,,http://www.redfin.com/TX/Dallas/4318-Sexton-Ln-75229/home/32471042,NTREIS,14665923,N,Y,32.8865819,-96.8358118
MLS Listing,,Single Family Residential,3445 Pinebrook Dr,Dallas,TX,75241,190000,3,1.5,Highland Hills 19,1122,5401,2004,5,169,,Active,September-12-2021 02:00 PM,September-12-2021 05:00 PM,http://www.redfin.com/TX/Dallas/3445-Pinebrook-Dr-75241/home/30730447,NTREIS,14663348,N,Y,32.6664306,-96.7670616
MLS Listing,,Condo/Co-op,2408 Victory Park Ln #1435,Dallas,TX,75219,3995000,4,5.5,South Tower Residences,5916,71395,2005,5,675,5799,Active,,,http://www.redfin.com/TX/Dallas/2408-Victory-Park-Ln-75219/unit-1435/home/30775491,NTREIS,14645870,N,Y,32.787755,-96.8091541
MLS Listing,,Single Family Residential,3625 Beverly Dr,Highland Park,TX,75205,8395000,5,7.5,Highland Park,8932,20996,1985,5,940,,Active,September-12-2021 01:00 PM,September-12-2021 03:00 PM,http://www.redfin.com/TX/Dallas/3625-Beverly-Dr-75205/home/32065668,NTREIS,14665633,N,Y,32.8318623,-96.7923639
MLS Listing,,Single Family Residential,5179 Chalet Ln,Dallas,TX,75232,374900,4,3.0,Highland Oaks 04,2395,8712,1966,5,157,,Active,September-12-2021 02:00 PM,September-12-2021 04:00 PM,http://www.redfin.com/TX/Dallas/5179-Chalet-Ln-75232/home/30903014,NTREIS,14666118,N,Y,32.6803534,-96.8474748
MLS Listing,,Condo/Co-op,1717 Arts Plz #1904,Dallas,TX,75201,800000,2,2.0,One Arts Plaza Condo,1636,,2007,5,489,1185,Active,,,http://www.redfin.com/TX/Dallas/1717-Arts-Plz-75201/unit-1904/home/30782833,NTREIS,14655707,N,Y,32.7923941,-96.7949146
MLS Listing,,Vacant Land,2788 E Overton Rd,Dallas,TX,75216,160000,0,,Oak Cliff Estates,,57499,,5,,,Active,,,http://www.redfin.com/TX/Dallas/2788-E-Overton-Rd-75216/home/30904146,NTREIS,14664986,N,Y,32.7121326,-96.7798711
MLS Listing,,Single Family Residential,8506 Londonderry Ln,Dallas,TX,75228,364900,4,2.0,White Rock Village 02,2681,7667,1977,5,136,,Active,,,http://www.redfin.com/TX/Dallas/8506-Londonderry-Ln-75228/home/31011255,NTREIS,14666081,N,Y,32.8007603,-96.6932825
MLS Listing,,Condo/Co-op,5120 Westgrove Dr,Dallas,TX,75248,440000,2,3.0,Lakes Of Bent Tree Condo,2228,417784,1982,5,197,595,Active,September-12-2021 02:00 PM,September-12-2021 04:00 PM,http://www.redfin.com/TX/Dallas/5120-Westgrove-Dr-75248/home/31174159,NTREIS,14663651,N,Y,32.9772133,-96.8210505
MLS Listing,,Single Family Residential,7044 Day St,Dallas,TX,75227,115000,3,1.0,Urbandale Add 04 Instl,1290,12850,1950,5,89,,Active,,,http://www.redfin.com/TX/Dallas/7044-Day-St-75227/home/30885839,NTREIS,14662003,N,Y,32.7670779,-96.6981921
MLS Listing,,Single Family Residential,11033 Trail Ln,Balch Springs,TX,75180,350000,2,1.0,Balch Springs,780,86249,1950,5,449,,Active,,,http://www.redfin.com/TX/Balch-Springs/11033-Trail-Ln-75180/home/32140800,NTREIS,14664429,N,Y,32.7102631,-96.6365303
MLS Listing,,Condo/Co-op,4906 Live Oak St #7,Dallas,TX,75206,475000,2,2.5,METRO ON LIVE OAK CONDO,1813,,2018,5,262,220,Active,September-12-2021 12:00 PM,September-12-2021 02:00 PM,http://www.redfin.com/TX/Dallas/4906-Live-Oak-St-75206/unit-7/home/147237697,NTREIS,14665901,N,Y,32.8029797,-96.7717778
MLS Listing,,Condo/Co-op,5817 Sandhurst Ln Unit C,Dallas,TX,75206,220000,2,2.0,Sandhurst Plaza Condo,1166,166486,1967,5,189,260,Active,,,http://www.redfin.com/TX/Dallas/5817-Sandhurst-Ln-75206/unit-C/home/30868407,NTREIS,14661662,N,Y,32.8445216,-96.767599
MLS Listing,,Townhouse,3725 TURTLE CREEK Blvd Unit A,Dallas,TX,75219,2495000,4,6.0,Bel-Air On Turtle Creek,5157,20386,1998,5,484,500,Active,,,http://www.redfin.com/TX/Dallas/3725-Turtle-Creek-Blvd-75219/unit-A/home/31122707,NTREIS,14628646,N,Y,32.8134988,-96.8016232
MLS Listing,,Single Family Residential,1815 Prairie View Dr,Dallas,TX,75235,199900,2,1.0,Arlington Park,784,6360,1951,5,255,,Active,,,http://www.redfin.com/TX/Dallas/1815-Prairie-View-Dr-75235/home/31053333,NTREIS,14665858,N,Y,32.8159213,-96.8502372
MLS Listing,,Single Family Residential,1136 La Rioja Dr,Dallas,TX,75217,300900,3,2.0,Hacienda Del Sol Ph 1,1896,5489,2016,5,159,25,Active,,,http://www.redfin.com/TX/Dallas/1136-La-Rioja-Dr-75217/home/30774857,NTREIS,14665833,N,Y,32.6935288,-96.6660255
MLS Listing,,Single Family Residential,6823 Mimosa Ln,Dallas,TX,75230,1700000,5,5.5,Pemberton Add,5559,11500,2008,5,306,,Active,September-12-2021 01:00 PM,September-12-2021 03:00 PM,http://www.redfin.com/TX/Dallas/6823-Mimosa-Ln-75230/home/30875600,NTREIS,14665802,N,Y,32.8835103,-96.7875055
MLS Listing,,Single Family Residential,2054 Leath St,Dallas,TX,75212,220000,3,1.0,Roosevelt Manor 1st Inst,1176,5401,1949,5,187,,Active,,,http://www.redfin.com/TX/Dallas/2054-Leath-St-75212/home/30976637,NTREIS,14665799,N,Y,32.7893416,-96.8557259
MLS Listing,,Single Family Residential,614 Bishop Heights Ln,Dallas,TX,75208,699000,4,3.5,Bishop Heights 4 Add,2638,5140,2017,5,265,125,Active,,,http://www.redfin.com/TX/Dallas/614-Bishop-Heights-Ln-75208/home/103638833,NTREIS,14665266,N,Y,32.7537817,-96.8319497
